[
  {
    "name": "القاطع",
    "coordinates": [
      35.5182677,
      33.6244623
    ]
  },
  {
    "name": "طرابلس",
    "coordinates": [
      35.8348551,
      34.4373616
    ]
  },
  {
    "name": "جونيه",
    "coordinates": [
      35.6200633,
      33.9741506
    ]
  },
  {
    "name": "الدورة",
    "coordinates": [
      35.5507034,
      33.8928157
    ]
  },
  {
    "name": "الكولا",
    "coordinates": [
      35.4957707,
      33.87592
    ]
  },
  {
    "name": "جديدة المتن",
    "coordinates": [
      35.5703807,
      33.8921658
    ]
  },
  {
    "name": "الخلّة",
    "coordinates": [
      35.5123536,
      33.6307009
    ]
  },
  {
    "name": "سبلين",
    "coordinates": [
      35.4353611,
      33.6239528
    ]
  },
  {
    "name": "الضيعة",
    "coordinates": [
      35.5121526,
      33.6290803
    ]
  },
  {
    "name": "جرديح",
    "coordinates": [
      35.216927,
      33.1002392
    ]
  },
  {
    "name": "كفر حزير",
    "coordinates": [
      35.7732333,
      34.3121354
    ]
  },
  {
    "name": "حدث الجبة",
    "coordinates": [
      35.9305505,
      34.2471828
    ]
  },
  {
    "name": "كفر صارون الكورة",
    "coordinates": [
      35.8295083,
      34.2961507
    ]
  },
  {
    "name": "رشدبين",
    "coordinates": [
      35.8618348,
      34.2916095
    ]
  },
  {
    "name": "كفر حاتا - الكورة",
    "coordinates": [
      35.7486284,
      34.2833514
    ]
  },
  {
    "name": "بتعبورة",
    "coordinates": [
      35.7635547,
      34.274401
    ]
  },
  {
    "name": "بدنايل - الكورة",
    "coordinates": [
      35.7339728,
      34.290475
    ]
  },
  {
    "name": "كفريا - الكورة",
    "coordinates": [
      35.723039,
      34.2948983
    ]
  },
  {
    "name": "رأس الناقورة",
    "coordinates": [
      35.1038666,
      33.0944176
    ]
  },
  {
    "name": "بيروت",
    "coordinates": [
      35.47843,
      33.8959203
    ]
  },
  {
    "name": "أدما و الدفنه",
    "coordinates": [
      35.6540175,
      34.0266183
    ]
  },
  {
    "name": "بيت الشعار",
    "coordinates": [
      35.6232986,
      33.9276415
    ]
  },
  {
    "name": "رميلة",
    "coordinates": [
      35.4023161,
      33.6107271
    ]
  },
  {
    "name": "ميناء الحصن",
    "coordinates": [
      35.4977044,
      33.899703
    ]
  },
  {
    "name": "صيفي",
    "coordinates": [
      35.5084655,
      33.8929743
    ]
  },
  {
    "name": "ضهر الجمل",
    "coordinates": [
      35.5339981,
      33.8837442
    ]
  },
  {
    "name": "جسر الواطي",
    "coordinates": [
      35.5327775,
      33.8798436
    ]
  },
  {
    "name": "عمّاطور",
    "coordinates": [
      35.5335046,
      33.8753419
    ]
  },
  {
    "name": "بكفيا",
    "coordinates": [
      35.684352,
      33.9221677
    ]
  },
  {
    "name": "شننعير",
    "coordinates": [
      35.6668237,
      34.0063305
    ]
  },
  {
    "name": "ديك المحدي",
    "coordinates": [
      35.6200816,
      33.9327557
    ]
  },
  {
    "name": "دوار",
    "coordinates": [
      35.6970236,
      33.9069005
    ]
  },
  {
    "name": "بيت الككو",
    "coordinates": [
      35.6380202,
      33.9244233
    ]
  },
  {
    "name": "ساحة المتحف",
    "coordinates": [
      35.5149794,
      33.8789712
    ]
  },
  {
    "name": "ضهر الهواء",
    "coordinates": [
      35.6690284,
      34.0018624
    ]
  },
  {
    "name": "ساحة المقاومة و التحرير",
    "coordinates": [
      35.4952401,
      33.8755964
    ]
  },
  {
    "name": "فاريا",
    "coordinates": [
      35.8204948,
      34.0128135
    ]
  },
  {
    "name": "برج البراجنة",
    "coordinates": [
      35.4990347,
      33.8410614
    ]
  },
  {
    "name": "نيحا",
    "coordinates": [
      35.6263982,
      33.5963175
    ]
  },
  {
    "name": "دلغاني",
    "coordinates": [
      35.6109609,
      33.5988558
    ]
  },
  {
    "name": "كفر تعلا",
    "coordinates": [
      35.595552,
      33.5712448
    ]
  },
  {
    "name": "عاريه",
    "coordinates": [
      35.5999168,
      33.5678518
    ]
  },
  {
    "name": "عين قني",
    "coordinates": [
      35.6140793,
      33.6510417
    ]
  },
  {
    "name": "الهلالية",
    "coordinates": [
      35.3928627,
      33.5669256
    ]
  },
  {
    "name": "عثرين",
    "coordinates": [
      35.568255,
      33.6646324
    ]
  },
  {
    "name": "شواليق - دير القمر",
    "coordinates": [
      35.5477253,
      33.6922005
    ]
  },
  {
    "name": "سهل الجية",
    "coordinates": [
      35.4223568,
      33.6814945
    ]
  },
  {
    "name": "مقصبة",
    "coordinates": [
      35.422598,
      33.6882528
    ]
  },
  {
    "name": "ساحة باب إدريس",
    "coordinates": [
      35.50263,
      33.8985185
    ]
  },
  {
    "name": "جلال عيرم",
    "coordinates": [
      35.3670406,
      33.5532562
    ]
  },
  {
    "name": "المنطقة المستحدثة",
    "coordinates": [
      35.5053319,
      33.9052059
    ]
  },
  {
    "name": "دوار الصالومي",
    "coordinates": [
      35.5399732,
      33.8811034
    ]
  },
  {
    "name": "ساحة الوردية",
    "coordinates": [
      35.4879037,
      33.8963819
    ]
  },
  {
    "name": "ساحة قداسة البابا",
    "coordinates": [
      35.5032362,
      33.901812
    ]
  },
  {
    "name": "بعلبك",
    "coordinates": [
      36.2117096,
      34.009653
    ]
  },
  {
    "name": "السلطانية",
    "coordinates": [
      35.407732,
      33.2055219
    ]
  },
  {
    "name": "مزرعة بيوت السياد",
    "coordinates": [
      35.1940949,
      33.1676911
    ]
  },
  {
    "name": "رمادية",
    "coordinates": [
      35.2766693,
      33.1988881
    ]
  },
  {
    "name": "شارنية",
    "coordinates": [
      35.2482946,
      33.266143
    ]
  },
  {
    "name": "وادي جيلو",
    "coordinates": [
      35.3044637,
      33.2436337
    ]
  },
  {
    "name": "رب الثلاثين",
    "coordinates": [
      35.5189761,
      33.2489966
    ]
  },
  {
    "name": "محيبيب",
    "coordinates": [
      35.5048596,
      33.1540427
    ]
  },
  {
    "name": "بيت ياحون",
    "coordinates": [
      35.4267386,
      33.1592022
    ]
  },
  {
    "name": "شقرا",
    "coordinates": [
      35.4629222,
      33.1924455
    ]
  },
  {
    "name": "بني حيان",
    "coordinates": [
      35.4911488,
      33.2438787
    ]
  },
  {
    "name": "ظهيرة",
    "coordinates": [
      35.2270769,
      33.1011399
    ]
  },
  {
    "name": "بطيشية",
    "coordinates": [
      35.209298,
      33.1055687
    ]
  },
  {
    "name": "رامية",
    "coordinates": [
      35.309988,
      33.1111363
    ]
  },
  {
    "name": "حانين",
    "coordinates": [
      35.3820811,
      33.1090042
    ]
  },
  {
    "name": "أمية",
    "coordinates": [
      35.372317,
      33.1185827
    ]
  },
  {
    "name": "قطمون",
    "coordinates": [
      35.3604854,
      33.0660062
    ]
  },
  {
    "name": "جباب العرب",
    "coordinates": [
      35.3720148,
      33.0684644
    ]
  },
  {
    "name": "نبي يوشع",
    "coordinates": [
      35.4991366,
      33.1307165
    ]
  },
  {
    "name": "ساحة مار نقولا",
    "coordinates": [
      35.5162469,
      33.8917696
    ]
  },
  {
    "name": "أبو شاش",
    "coordinates": [
      35.2114899,
      33.1282772
    ]
  },
  {
    "name": "المبشرات",
    "coordinates": [
      35.383704,
      33.1348159
    ]
  },
  {
    "name": "الحارة",
    "coordinates": [
      35.4109158,
      33.1972906
    ]
  },
  {
    "name": "تلة النمرة",
    "coordinates": [
      35.3833333,
      33.3527778
    ]
  },
  {
    "name": "النبطية التحتا",
    "coordinates": [
      35.4833734,
      33.3775564
    ]
  },
  {
    "name": "النواويس",
    "coordinates": [
      35.3913889,
      33.5188889
    ]
  },
  {
    "name": "قلعة قشمون عازار",
    "coordinates": [
      35.3983333,
      33.5855556
    ]
  },
  {
    "name": "السعديات",
    "coordinates": [
      35.4261111,
      33.695
    ]
  },
  {
    "name": "خناديق ضرتة",
    "coordinates": [
      35.4941667,
      33.7269444
    ]
  },
  {
    "name": "خلال الغنم",
    "coordinates": [
      35.5722222,
      33.5363889
    ]
  },
  {
    "name": "صباح",
    "coordinates": [
      35.5652778,
      33.5680556
    ]
  },
  {
    "name": "خلة الجحشة",
    "coordinates": [
      35.6311111,
      33.5041667
    ]
  },
  {
    "name": "حارة الكواسبة",
    "coordinates": [
      35.8447222,
      33.4983333
    ]
  },
  {
    "name": "مزرعة المطحنة",
    "coordinates": [
      35.5192844,
      33.5787068
    ]
  },
  {
    "name": "الخربة",
    "coordinates": [
      35.5263889,
      33.5819444
    ]
  },
  {
    "name": "بسري",
    "coordinates": [
      35.5402778,
      33.5783333
    ]
  },
  {
    "name": "الغباطية",
    "coordinates": [
      35.5844444,
      33.5777778
    ]
  },
  {
    "name": "جل ناشي",
    "coordinates": [
      35.5741667,
      33.5780556
    ]
  },
  {
    "name": "خندق الوسطى",
    "coordinates": [
      35.5308333,
      33.6319444
    ]
  },
  {
    "name": "خلة المغارة",
    "coordinates": [
      35.5172222,
      33.65
    ]
  },
  {
    "name": "خلة الكبيرة",
    "coordinates": [
      35.5413889,
      33.6786111
    ]
  },
  {
    "name": "ساقية الحواقير",
    "coordinates": [
      35.5338889,
      33.7044444
    ]
  },
  {
    "name": "باب المرم",
    "coordinates": [
      35.5880556,
      33.6719444
    ]
  },
  {
    "name": "خلة درجة المصري",
    "coordinates": [
      35.6094444,
      33.6766667
    ]
  },
  {
    "name": "وادي شرف الدين",
    "coordinates": [
      35.7608333,
      33.7255556
    ]
  },
  {
    "name": "سلطان يعقوب",
    "coordinates": [
      35.8594374,
      33.6442578
    ]
  },
  {
    "name": "زعيترية",
    "coordinates": [
      35.5611737,
      33.8807028
    ]
  },
  {
    "name": "حي الروم",
    "coordinates": [
      35.5888394,
      33.9051102
    ]
  },
  {
    "name": "العزونية",
    "coordinates": [
      35.7065778,
      33.7740026
    ]
  },
  {
    "name": "المسلوخ",
    "coordinates": [
      35.6444945,
      34.2056263
    ]
  },
  {
    "name": "جورة الخوري",
    "coordinates": [
      35.8033333,
      34.3177778
    ]
  },
  {
    "name": "جديدة برقشا",
    "coordinates": [
      35.8441667,
      34.3908333
    ]
  },
  {
    "name": "الزعرورة",
    "coordinates": [
      35.8708333,
      33.8125
    ]
  },
  {
    "name": "قوسايا",
    "coordinates": [
      36.0247492,
      33.8120161
    ]
  },
  {
    "name": "زحلة",
    "coordinates": [
      35.9024955,
      33.8477069
    ]
  },
  {
    "name": "قاع الريم",
    "coordinates": [
      35.8748106,
      33.883322
    ]
  },
  {
    "name": "تمنين التحتى",
    "coordinates": [
      35.991597,
      33.8834355
    ]
  },
  {
    "name": "وادي الهارب",
    "coordinates": [
      36.0761111,
      34.0975
    ]
  },
  {
    "name": "وادي عيسى",
    "coordinates": [
      35.9405556,
      34.2319444
    ]
  },
  {
    "name": "وادي عيون مجدلية",
    "coordinates": [
      35.8659238,
      34.4164165
    ]
  },
  {
    "name": "رجم عيسى",
    "coordinates": [
      36.3838889,
      34.6197222
    ]
  },
  {
    "name": "بني صخر",
    "coordinates": [
      36.3092408,
      34.6645674
    ]
  },
  {
    "name": "وادي الميس",
    "coordinates": [
      36.355,
      34.6508333
    ]
  },
  {
    "name": "الجمرك",
    "coordinates": [
      36.3458843,
      34.6636971
    ]
  },
  {
    "name": "وادي الدير",
    "coordinates": [
      36.2,
      33.8333333
    ]
  },
  {
    "name": "وادي النبي تولا",
    "coordinates": [
      36.1,
      33.8333333
    ]
  },
  {
    "name": "قصر البنات",
    "coordinates": [
      36.15,
      33.85
    ]
  },
  {
    "name": "وادي سرغايا",
    "coordinates": [
      36.1333333,
      33.85
    ]
  },
  {
    "name": "وادي عين الخنزير",
    "coordinates": [
      36.0666667,
      33.8166667
    ]
  },
  {
    "name": "وادي يحفوفة",
    "coordinates": [
      36.0163889,
      33.8555556
    ]
  },
  {
    "name": "عقبة الطين",
    "coordinates": [
      36.0332951,
      33.6000698
    ]
  },
  {
    "name": "الشيخ جابر",
    "coordinates": [
      35.9756059,
      34.6350068
    ]
  },
  {
    "name": "قصر شبيب",
    "coordinates": [
      35.85,
      33.4166667
    ]
  },
  {
    "name": "رخلة",
    "coordinates": [
      35.9722785,
      33.5141652
    ]
  },
  {
    "name": "وادي سعيد",
    "coordinates": [
      35.9666674,
      33.5166398
    ]
  },
  {
    "name": "بزناية",
    "coordinates": [
      36.4250212,
      34.6403806
    ]
  },
  {
    "name": "عريضة",
    "coordinates": [
      36.3001533,
      34.670079
    ]
  },
  {
    "name": "نهر الصفاء",
    "coordinates": [
      36.3503608,
      34.6842839
    ]
  },
  {
    "name": "معربو",
    "coordinates": [
      36.1166428,
      34.6332841
    ]
  },
  {
    "name": "عزير",
    "coordinates": [
      36.2319362,
      34.6339081
    ]
  },
  {
    "name": "وادي المزراب",
    "coordinates": [
      36.4006398,
      34.6337492
    ]
  },
  {
    "name": "عين الشعرة",
    "coordinates": [
      36.2121558,
      34.6336586
    ]
  },
  {
    "name": "تل الشحم",
    "coordinates": [
      36.1333333,
      34.6333333
    ]
  },
  {
    "name": "وادي العووية",
    "coordinates": [
      36.3998775,
      34.6327931
    ]
  },
  {
    "name": "وادي أدين",
    "coordinates": [
      36.2833333,
      34.6333333
    ]
  },
  {
    "name": "البويت",
    "coordinates": [
      36.4158802,
      34.599916
    ]
  },
  {
    "name": "الرنسية",
    "coordinates": [
      36.0333333,
      34.6333333
    ]
  },
  {
    "name": "بني نعيم",
    "coordinates": [
      36.0025406,
      34.6477107
    ]
  },
  {
    "name": "خلة بيت القسيس",
    "coordinates": [
      35.9333333,
      33.65
    ]
  },
  {
    "name": "مراح المصايات",
    "coordinates": [
      35.9666667,
      33.7
    ]
  },
  {
    "name": "وادي الصهريج",
    "coordinates": [
      36.3647222,
      33.8858333
    ]
  },
  {
    "name": "خان ميسلون",
    "coordinates": [
      36.0665678,
      33.583957
    ]
  },
  {
    "name": "وادي راحة لبطة",
    "coordinates": [
      35.9827608,
      33.6323799
    ]
  },
  {
    "name": "باب المغار",
    "coordinates": [
      36.0666472,
      33.582543
    ]
  },
  {
    "name": "وادي الدبور",
    "coordinates": [
      35.9666667,
      33.6333333
    ]
  },
  {
    "name": "المصنع",
    "coordinates": [
      35.9182952,
      33.7047284
    ]
  },
  {
    "name": "الزمراني",
    "coordinates": [
      36.5666667,
      34.1333333
    ]
  },
  {
    "name": "بركة الفختة",
    "coordinates": [
      36.4166667,
      34.05
    ]
  },
  {
    "name": "عين القبو",
    "coordinates": [
      36.6166667,
      34.2166667
    ]
  },
  {
    "name": "الوشوشة",
    "coordinates": [
      36.3990813,
      34.5662409
    ]
  },
  {
    "name": "وادي الشقيف",
    "coordinates": [
      36.3333333,
      34.5333333
    ]
  },
  {
    "name": "صفاء الصفوة",
    "coordinates": [
      36.3999893,
      34.4999514
    ]
  },
  {
    "name": "سهل زيتيني",
    "coordinates": [
      36.4166667,
      34.55
    ]
  },
  {
    "name": "بيت حيرة",
    "coordinates": [
      36.4666667,
      34.4333333
    ]
  },
  {
    "name": "وادي حميرة",
    "coordinates": [
      36.3333487,
      34.5157528
    ]
  },
  {
    "name": "الصخر",
    "coordinates": [
      36.419124,
      34.5781411
    ]
  },
  {
    "name": "المجوية",
    "coordinates": [
      36.3663126,
      34.4981078
    ]
  },
  {
    "name": "خربة جوسية",
    "coordinates": [
      36.5666667,
      34.4
    ]
  },
  {
    "name": "خندق الوحش",
    "coordinates": [
      35.533573,
      33.6149924
    ]
  },
  {
    "name": "مزرعة البرغوتية",
    "coordinates": [
      35.4224453,
      33.5900576
    ]
  },
  {
    "name": "صور",
    "coordinates": [
      35.1964023,
      33.2721211
    ]
  },
  {
    "name": "النبطية",
    "coordinates": [
      35.4825346,
      33.3812029
    ]
  },
  {
    "name": "تعيد",
    "coordinates": [
      35.5448833,
      33.574265
    ]
  },
  {
    "name": "كفرعبيدا",
    "coordinates": [
      35.6628077,
      34.2280176
    ]
  },
  {
    "name": "عرسال ساحة",
    "coordinates": [
      36.4187723,
      34.1802927
    ]
  },
  {
    "name": "بشري",
    "coordinates": [
      36.0099915,
      34.2507231
    ]
  },
  {
    "name": "حي المشاع",
    "coordinates": [
      35.4782035,
      33.3877176
    ]
  },
  {
    "name": "حي المسيحيين",
    "coordinates": [
      35.4883452,
      33.3783069
    ]
  },
  {
    "name": "بئر القنديل",
    "coordinates": [
      35.4808112,
      33.3760784
    ]
  },
  {
    "name": "النبطيه الفوقا",
    "coordinates": [
      35.4986586,
      33.3618797
    ]
  },
  {
    "name": "حي السرايا",
    "coordinates": [
      35.4834559,
      33.3760144
    ]
  },
  {
    "name": "بدادون",
    "coordinates": [
      35.5691624,
      33.8092487
    ]
  },
  {
    "name": "بسابا",
    "coordinates": [
      35.5421285,
      33.8032466
    ]
  },
  {
    "name": "بناية الأرز",
    "coordinates": [
      35.5513546,
      33.8062063
    ]
  },
  {
    "name": "قرية السلام",
    "coordinates": [
      35.7450788,
      33.8567921
    ]
  },
  {
    "name": "شلالات جزين",
    "coordinates": [
      35.583377,
      33.5453539
    ]
  },
  {
    "name": "بيكنيك شويت",
    "coordinates": [
      35.6657935,
      33.8291755
    ]
  },
  {
    "name": "الزعرور",
    "coordinates": [
      35.8024835,
      33.9225026
    ]
  },
  {
    "name": "البقيعة",
    "coordinates": [
      36.3379778,
      34.6634589
    ]
  },
  {
    "name": "جبل المنصورة",
    "coordinates": [
      36.3194332,
      34.6322144
    ]
  },
  {
    "name": "خط البترول",
    "coordinates": [
      36.3456975,
      34.684882
    ]
  },
  {
    "name": "ساحة الشراع",
    "coordinates": [
      35.8450119,
      34.4273361
    ]
  },
  {
    "name": "طهماز",
    "coordinates": [
      35.5216672,
      33.8472898
    ]
  },
  {
    "name": "الفرض",
    "coordinates": [
      36.3757083,
      34.6281133
    ]
  },
  {
    "name": "وادي خالد",
    "coordinates": [
      36.3875751,
      34.6233407
    ]
  },
  {
    "name": "البعل",
    "coordinates": [
      36.3321951,
      34.6423838
    ]
  },
  {
    "name": "الساعد",
    "coordinates": [
      36.3920204,
      34.6256753
    ]
  },
  {
    "name": "بقاع كفرا",
    "coordinates": [
      36.0055649,
      34.2376203
    ]
  },
  {
    "name": "تل التين",
    "coordinates": [
      36.3343595,
      34.6537029
    ]
  },
  {
    "name": "برعشيت",
    "coordinates": [
      35.441914,
      33.175473
    ]
  },
  {
    "name": "ممنع",
    "coordinates": [
      36.1756022,
      34.5001843
    ]
  },
  {
    "name": "عيون ارغش",
    "coordinates": [
      36.1290789,
      34.2611945
    ]
  },
  {
    "name": "عين السنديانة",
    "coordinates": [
      35.7303845,
      33.9018903
    ]
  },
  {
    "name": "حلبا",
    "coordinates": [
      36.0783772,
      34.5444034
    ]
  },
  {
    "name": "قصوبة",
    "coordinates": [
      35.4246002,
      33.6767821
    ]
  },
  {
    "name": "حاريص",
    "coordinates": [
      35.3770352,
      33.1803063
    ]
  },
  {
    "name": "كلمنصو",
    "coordinates": [
      35.4889101,
      33.8980556
    ]
  },
  {
    "name": "شادي ديب داغر",
    "coordinates": [
      35.685313,
      34.1444802
    ]
  },
  {
    "name": "ترشيش",
    "coordinates": [
      35.802834,
      33.8767935
    ]
  },
  {
    "name": "الغجر",
    "coordinates": [
      35.6239112,
      33.2721727
    ]
  },
  {
    "name": "الضبية",
    "coordinates": [
      35.5937934,
      33.9420159
    ]
  },
  {
    "name": "أنطلياس",
    "coordinates": [
      35.5936231,
      33.9123639
    ]
  },
  {
    "name": "الكسليك",
    "coordinates": [
      35.6191594,
      33.9840398
    ]
  },
  {
    "name": "الاشرفية",
    "coordinates": [
      35.5193562,
      33.8862143
    ]
  },
  {
    "name": "نهر ابراهيم",
    "coordinates": [
      35.6492436,
      34.0651348
    ]
  },
  {
    "name": "ساحل علما",
    "coordinates": [
      35.6562772,
      33.9941111
    ]
  },
  {
    "name": "فتقا",
    "coordinates": [
      35.6632748,
      34.0345492
    ]
  },
  {
    "name": "البترون",
    "coordinates": [
      35.6588567,
      34.2548879
    ]
  },
  {
    "name": "جبيل",
    "coordinates": [
      35.6493557,
      34.1236954
    ]
  },
  {
    "name": "حالات",
    "coordinates": [
      35.6584659,
      34.0842051
    ]
  },
  {
    "name": "غزير",
    "coordinates": [
      35.6609117,
      34.0161562
    ]
  },
  {
    "name": "كفور",
    "coordinates": [
      35.6928451,
      34.0348765
    ]
  },
  {
    "name": "دلبتا",
    "coordinates": [
      35.692724,
      34.0097809
    ]
  },
  {
    "name": "كفرياسين",
    "coordinates": [
      35.6361186,
      34.0249832
    ]
  },
  {
    "name": "معاد",
    "coordinates": [
      35.6807399,
      34.1937006
    ]
  },
  {
    "name": "بعبدا",
    "coordinates": [
      35.5445655,
      33.8335501
    ]
  },
  {
    "name": "الهرمل",
    "coordinates": [
      36.3889577,
      34.3973279
    ]
  },
  {
    "name": "الباشورة",
    "coordinates": [
      35.5036988,
      33.8919883
    ]
  },
  {
    "name": "المرفأ",
    "coordinates": [
      35.5140912,
      33.8986369
    ]
  },
  {
    "name": "القبيات",
    "coordinates": [
      35.5342344,
      33.8948019
    ]
  },
  {
    "name": "ذوق مكايل",
    "coordinates": [
      35.6213958,
      33.9701266
    ]
  },
  {
    "name": "كورنيش المزرعه",
    "coordinates": [
      35.4864369,
      33.8816591
    ]
  },
  {
    "name": "دير القمر",
    "coordinates": [
      35.5647431,
      33.6979691
    ]
  },
  {
    "name": "بيت الدين‎",
    "coordinates": [
      35.5812014,
      33.6941838
    ]
  },
  {
    "name": "حارة صخر",
    "coordinates": [
      35.6427974,
      33.9889697
    ]
  },
  {
    "name": "وطى سلام",
    "coordinates": [
      35.6285161,
      34.0215645
    ]
  },
  {
    "name": "صيدا",
    "coordinates": [
      35.3780338,
      33.5618345
    ]
  },
  {
    "name": "عابا",
    "coordinates": [
      35.8342619,
      34.3487512
    ]
  },
  {
    "name": "عبا",
    "coordinates": [
      35.402686,
      33.3617043
    ]
  },
  {
    "name": "عمشيت",
    "coordinates": [
      35.6465525,
      34.1421297
    ]
  },
  {
    "name": "زقاق البلاط",
    "coordinates": [
      35.4984378,
      33.8929353
    ]
  },
  {
    "name": "الأشرفية",
    "coordinates": [
      35.5255238,
      33.8904237
    ]
  },
  {
    "name": "حبوش",
    "coordinates": [
      35.4812705,
      33.409165
    ]
  },
  {
    "name": "عين إبل",
    "coordinates": [
      35.4031087,
      33.1093022
    ]
  },
  {
    "name": "جزين",
    "coordinates": [
      35.5843949,
      33.5439343
    ]
  },
  {
    "name": "افقا",
    "coordinates": [
      35.8904085,
      34.0680145
    ]
  },
  {
    "name": "لاسا",
    "coordinates": [
      35.853678,
      34.0684184
    ]
  },
  {
    "name": "غينة",
    "coordinates": [
      35.708397,
      34.0402929
    ]
  },
  {
    "name": "المشاتي",
    "coordinates": [
      35.762657,
      34.0499451
    ]
  },
  {
    "name": "غابات",
    "coordinates": [
      35.8659892,
      34.0794669
    ]
  },
  {
    "name": "فيطرون",
    "coordinates": [
      35.7313178,
      33.9907186
    ]
  },
  {
    "name": "ذوق مصبح",
    "coordinates": [
      35.6151627,
      33.9558528
    ]
  },
  {
    "name": "البريج",
    "coordinates": [
      35.7044411,
      34.1198192
    ]
  },
  {
    "name": "رأس أسطا",
    "coordinates": [
      35.7136596,
      34.116932
    ]
  },
  {
    "name": "غدراس",
    "coordinates": [
      35.6793737,
      34.0448066
    ]
  },
  {
    "name": "عذره",
    "coordinates": [
      35.7054816,
      34.0625989
    ]
  },
  {
    "name": "بزمار",
    "coordinates": [
      35.6804229,
      33.9866334
    ]
  },
  {
    "name": "عشقوت",
    "coordinates": [
      35.7077229,
      33.9880578
    ]
  },
  {
    "name": "نمورة",
    "coordinates": [
      35.6735944,
      34.0516283
    ]
  },
  {
    "name": "زعيتره",
    "coordinates": [
      35.6955135,
      34.0700536
    ]
  },
  {
    "name": "طبرجا",
    "coordinates": [
      35.632546,
      34.0302604
    ]
  },
  {
    "name": "جورة ترمس",
    "coordinates": [
      35.7164346,
      34.0452546
    ]
  },
  {
    "name": "يحشوش",
    "coordinates": [
      35.7380582,
      34.0683703
    ]
  },
  {
    "name": "حياطة",
    "coordinates": [
      35.7201468,
      34.0257258
    ]
  },
  {
    "name": "شحتول",
    "coordinates": [
      35.7218142,
      34.0339365
    ]
  },
  {
    "name": "قرطبا",
    "coordinates": [
      35.8473775,
      34.0943096
    ]
  },
  {
    "name": "بسكنتا",
    "coordinates": [
      35.7880099,
      33.9450012
    ]
  },
  {
    "name": "دكوانة",
    "coordinates": [
      35.546644,
      33.880408
    ]
  },
  {
    "name": "سن الفيل",
    "coordinates": [
      35.5376847,
      33.8778546
    ]
  },
  {
    "name": "برج حموﺪ",
    "coordinates": [
      35.5390068,
      33.8888717
    ]
  },
  {
    "name": "النقاش",
    "coordinates": [
      35.5970889,
      33.9228218
    ]
  },
  {
    "name": "جبعا",
    "coordinates": [
      36.0443575,
      34.0049263
    ]
  },
  {
    "name": "ميروبا",
    "coordinates": [
      35.7745304,
      34.0190457
    ]
  },
  {
    "name": "زلقا",
    "coordinates": [
      35.5776078,
      33.8973194
    ]
  },
  {
    "name": "حزن",
    "coordinates": [
      36.0938215,
      33.9703243
    ]
  },
  {
    "name": "طيبة",
    "coordinates": [
      36.1662519,
      33.9578755
    ]
  },
  {
    "name": "معراب",
    "coordinates": [
      35.677901,
      33.9986481
    ]
  },
  {
    "name": "عرمون",
    "coordinates": [
      35.69963,
      34.0188715
    ]
  },
  {
    "name": "قهمز",
    "coordinates": [
      35.8125263,
      34.0560024
    ]
  },
  {
    "name": "بلونة",
    "coordinates": [
      35.676679,
      33.9536929
    ]
  },
  {
    "name": "ريفون",
    "coordinates": [
      35.7027877,
      33.9808763
    ]
  },
  {
    "name": "غرزوز",
    "coordinates": [
      35.6728276,
      34.1841548
    ]
  },
  {
    "name": "شموت",
    "coordinates": [
      35.6705835,
      34.1978129
    ]
  },
  {
    "name": "البربارة",
    "coordinates": [
      35.6386175,
      34.1952757
    ]
  },
  {
    "name": "بجه",
    "coordinates": [
      35.7165977,
      34.1796558
    ]
  },
  {
    "name": "حقل",
    "coordinates": [
      35.7505377,
      34.1706491
    ]
  },
  {
    "name": "منصف",
    "coordinates": [
      35.6444467,
      34.1820862
    ]
  },
  {
    "name": "لحفد",
    "coordinates": [
      35.7798841,
      34.1670943
    ]
  },
  {
    "name": "اهمج",
    "coordinates": [
      35.7855526,
      34.1223141
    ]
  },
  {
    "name": "زبدين",
    "coordinates": [
      35.7170503,
      34.0952792
    ]
  },
  {
    "name": "غوسطا",
    "coordinates": [
      35.6734233,
      33.9885442
    ]
  },
  {
    "name": "الأرز",
    "coordinates": [
      36.0403544,
      34.24375
    ]
  },
  {
    "name": "البابلية",
    "coordinates": [
      35.3422373,
      33.4212401
    ]
  },
  {
    "name": "الأنصارية",
    "coordinates": [
      35.2791116,
      33.4103338
    ]
  },
  {
    "name": "بيت مري",
    "coordinates": [
      35.603338,
      33.8662545
    ]
  },
  {
    "name": "صفرا",
    "coordinates": [
      35.6382483,
      34.0371688
    ]
  },
  {
    "name": "بوار",
    "coordinates": [
      35.6406838,
      34.0479747
    ]
  },
  {
    "name": "صربا",
    "coordinates": [
      35.6184555,
      33.9774198
    ]
  },
  {
    "name": "درعون",
    "coordinates": [
      35.6603336,
      33.9763033
    ]
  },
  {
    "name": "حريصا",
    "coordinates": [
      35.6506133,
      33.9821486
    ]
  },
  {
    "name": "شتورا",
    "coordinates": [
      35.8553364,
      33.8120286
    ]
  },
  {
    "name": "رأس بعلبك",
    "coordinates": [
      36.4200272,
      34.2597931
    ]
  },
  {
    "name": "الفاكهه",
    "coordinates": [
      36.4029944,
      34.2450404
    ]
  },
  {
    "name": "اللبوة",
    "coordinates": [
      36.3558894,
      34.195857
    ]
  },
  {
    "name": "النبي عثمان",
    "coordinates": [
      36.3689536,
      34.2144727
    ]
  },
  {
    "name": "انفه",
    "coordinates": [
      35.7339496,
      34.3578742
    ]
  },
  {
    "name": "شكا",
    "coordinates": [
      35.7350815,
      34.3308738
    ]
  },
  {
    "name": "مرادية",
    "coordinates": [
      35.7099921,
      34.0704268
    ]
  },
  {
    "name": "القاع",
    "coordinates": [
      36.4800435,
      34.3408227
    ]
  },
  {
    "name": "الصرفند",
    "coordinates": [
      35.2976936,
      33.4492215
    ]
  },
  {
    "name": "كفر دبش",
    "coordinates": [
      36.0322487,
      33.9480415
    ]
  },
  {
    "name": "الناقورة",
    "coordinates": [
      35.1298249,
      33.1182741
    ]
  },
  {
    "name": "تبنين",
    "coordinates": [
      35.4117998,
      33.1932575
    ]
  },
  {
    "name": "حولا",
    "coordinates": [
      35.5187344,
      33.2101829
    ]
  },
  {
    "name": "برجا",
    "coordinates": [
      35.4330164,
      33.6448026
    ]
  },
  {
    "name": "حمانا",
    "coordinates": [
      35.7359048,
      33.8269773
    ]
  },
  {
    "name": "عاليه",
    "coordinates": [
      35.6061181,
      33.8082697
    ]
  },
  {
    "name": "زيتون",
    "coordinates": [
      35.6837869,
      34.062508
    ]
  },
  {
    "name": "بسلوقيط",
    "coordinates": [
      35.9672481,
      34.3079149
    ]
  },
  {
    "name": "إهدن",
    "coordinates": [
      35.9656763,
      34.2906583
    ]
  },
  {
    "name": "تنورين",
    "coordinates": [
      35.9027168,
      34.1843377
    ]
  },
  {
    "name": "بمهريه",
    "coordinates": [
      35.7194656,
      33.7577601
    ]
  },
  {
    "name": "بعبدات",
    "coordinates": [
      35.6675434,
      33.8872681
    ]
  },
  {
    "name": "حراجل",
    "coordinates": [
      35.7945943,
      34.0147746
    ]
  },
  {
    "name": "حصين",
    "coordinates": [
      35.7090641,
      34.0507483
    ]
  },
  {
    "name": "رعشين",
    "coordinates": [
      35.7171536,
      34.0100478
    ]
  },
  {
    "name": "داريا‎‎",
    "coordinates": [
      35.6976092,
      33.9556554
    ]
  },
  {
    "name": "المعيصرة",
    "coordinates": [
      35.6684554,
      34.0657254
    ]
  },
  {
    "name": "بطحا",
    "coordinates": [
      35.6594592,
      33.9862408
    ]
  },
  {
    "name": "دورس",
    "coordinates": [
      36.1796817,
      33.9879022
    ]
  },
  {
    "name": "طفيل",
    "coordinates": [
      36.3668019,
      33.8499677
    ]
  },
  {
    "name": "معربون",
    "coordinates": [
      36.1887664,
      33.8516975
    ]
  },
  {
    "name": "مجدلون",
    "coordinates": [
      36.1357719,
      33.9900271
    ]
  },
  {
    "name": "عين كفر زبد",
    "coordinates": [
      36.0039299,
      33.7960892
    ]
  },
  {
    "name": "الفوعة",
    "coordinates": [
      35.9683209,
      33.7804671
    ]
  },
  {
    "name": "نابيه",
    "coordinates": [
      35.6188774,
      33.8990416
    ]
  },
  {
    "name": "قنابة",
    "coordinates": [
      35.6178474,
      33.8947135
    ]
  },
  {
    "name": "جدايل",
    "coordinates": [
      35.6486499,
      34.1635848
    ]
  },
  {
    "name": "طاريا",
    "coordinates": [
      36.0237784,
      33.9835275
    ]
  },
  {
    "name": "دير سريان",
    "coordinates": [
      35.5002379,
      33.2920997
    ]
  },
  {
    "name": "الطيبة",
    "coordinates": [
      35.5205286,
      33.2749784
    ]
  },
  {
    "name": "كفر تبنيت",
    "coordinates": [
      35.5111384,
      33.3499782
    ]
  },
  {
    "name": "صغبين",
    "coordinates": [
      35.6971872,
      33.6120907
    ]
  },
  {
    "name": "باب ماريا",
    "coordinates": [
      35.6804096,
      33.5825045
    ]
  },
  {
    "name": "عين مجدلين",
    "coordinates": [
      35.6022423,
      33.5224617
    ]
  },
  {
    "name": "متين",
    "coordinates": [
      35.7436538,
      33.893066
    ]
  },
  {
    "name": "نيحا",
    "coordinates": [
      35.9643898,
      33.8931175
    ]
  },
  {
    "name": "كفريا",
    "coordinates": [
      35.7374833,
      33.6660868
    ]
  },
  {
    "name": "بوابة حارة العين",
    "coordinates": [
      35.4431776,
      33.6492303
    ]
  },
  {
    "name": "بوابة البزري",
    "coordinates": [
      35.4426254,
      33.6499088
    ]
  },
  {
    "name": "بوابة السباع",
    "coordinates": [
      35.4425257,
      33.6495179
    ]
  },
  {
    "name": "قلعة عنوز",
    "coordinates": [
      35.4389572,
      33.6452069
    ]
  },
  {
    "name": "المسيل",
    "coordinates": [
      35.4407498,
      33.6458493
    ]
  },
  {
    "name": "البساتين",
    "coordinates": [
      35.4420051,
      33.6465582
    ]
  },
  {
    "name": "المراح",
    "coordinates": [
      35.4544753,
      33.6464055
    ]
  },
  {
    "name": "خندق مرهج",
    "coordinates": [
      35.4528522,
      33.6454847
    ]
  },
  {
    "name": "الناعورة",
    "coordinates": [
      35.4441601,
      33.6439222
    ]
  },
  {
    "name": "المحورية",
    "coordinates": [
      35.4418153,
      33.6481405
    ]
  },
  {
    "name": "خلة معاد",
    "coordinates": [
      35.4434933,
      33.6410834
    ]
  },
  {
    "name": "المحافر",
    "coordinates": [
      35.4461559,
      33.6510362
    ]
  },
  {
    "name": "الحفة",
    "coordinates": [
      35.4391962,
      33.6459289
    ]
  },
  {
    "name": "الشورة",
    "coordinates": [
      35.4459395,
      33.6506259
    ]
  },
  {
    "name": "كرمومة",
    "coordinates": [
      35.4380111,
      33.653437
    ]
  },
  {
    "name": "الميدان",
    "coordinates": [
      35.4377417,
      33.6499853
    ]
  },
  {
    "name": "الصوانة",
    "coordinates": [
      35.4326131,
      33.6402143
    ]
  },
  {
    "name": "حواكير السلطي",
    "coordinates": [
      35.4406993,
      33.6523053
    ]
  },
  {
    "name": "خلة النافوش",
    "coordinates": [
      35.4461356,
      33.6499149
    ]
  },
  {
    "name": "المطلات",
    "coordinates": [
      35.448946,
      33.6488836
    ]
  },
  {
    "name": "تحت المنزول",
    "coordinates": [
      35.4409516,
      33.6504236
    ]
  },
  {
    "name": "البلايط",
    "coordinates": [
      35.4400449,
      33.6455313
    ]
  },
  {
    "name": "قلعة النواويس",
    "coordinates": [
      35.4410587,
      33.6428929
    ]
  },
  {
    "name": "ساحة النعصة",
    "coordinates": [
      35.4458073,
      33.6417066
    ]
  },
  {
    "name": "كرم وادي قصب",
    "coordinates": [
      35.4476406,
      33.6501112
    ]
  },
  {
    "name": "عبدو الصحرا",
    "coordinates": [
      35.4398585,
      33.6431545
    ]
  },
  {
    "name": "ضهر الحٍيص",
    "coordinates": [
      35.4457004,
      33.642699
    ]
  },
  {
    "name": "جل عمر",
    "coordinates": [
      35.451718,
      33.6448287
    ]
  },
  {
    "name": "كروم مسرج",
    "coordinates": [
      35.4349656,
      33.6457364
    ]
  },
  {
    "name": "وادي زوين",
    "coordinates": [
      35.4433132,
      33.6489441
    ]
  },
  {
    "name": "المنقب",
    "coordinates": [
      35.4472508,
      33.646487
    ]
  },
  {
    "name": "كرم الشيخ يوسف",
    "coordinates": [
      35.4393466,
      33.6537162
    ]
  },
  {
    "name": "خندق حديد",
    "coordinates": [
      35.427964,
      33.6415959
    ]
  },
  {
    "name": "خلة سرسق",
    "coordinates": [
      35.4291074,
      33.6477964
    ]
  },
  {
    "name": "قلعة بو عارف",
    "coordinates": [
      35.4306819,
      33.6469662
    ]
  },
  {
    "name": "خلة الشعار",
    "coordinates": [
      35.4301862,
      33.6519753
    ]
  },
  {
    "name": "مشتى حمود",
    "coordinates": [
      36.3261395,
      34.6331581
    ]
  },
  {
    "name": "مغارة الملح",
    "coordinates": [
      35.4360716,
      33.6389917
    ]
  },
  {
    "name": "كسارغيض",
    "coordinates": [
      35.4396547,
      33.6409517
    ]
  },
  {
    "name": "كرم ضرار",
    "coordinates": [
      35.4440513,
      33.6417462
    ]
  },
  {
    "name": "الجرينة",
    "coordinates": [
      35.437125,
      33.6533259
    ]
  },
  {
    "name": "كرم الكردوش",
    "coordinates": [
      35.4386378,
      33.6508726
    ]
  },
  {
    "name": "خلة عويد",
    "coordinates": [
      35.4332488,
      33.652714
    ]
  },
  {
    "name": "البطمة",
    "coordinates": [
      35.433214,
      33.6542335
    ]
  },
  {
    "name": "خلة عسول",
    "coordinates": [
      35.4278624,
      33.6455891
    ]
  },
  {
    "name": "المستوية",
    "coordinates": [
      35.437334,
      33.6509933
    ]
  },
  {
    "name": "توتات الحامض",
    "coordinates": [
      35.4282733,
      33.6373768
    ]
  },
  {
    "name": "خلة البومة",
    "coordinates": [
      35.4269193,
      33.6472987
    ]
  },
  {
    "name": "صاليما",
    "coordinates": [
      35.6967571,
      33.8727474
    ]
  },
  {
    "name": "قرنايل",
    "coordinates": [
      35.7275668,
      33.8557575
    ]
  },
  {
    "name": "الخريبة",
    "coordinates": [
      36.1634234,
      33.8728059
    ]
  },
  {
    "name": "حام",
    "coordinates": [
      36.20288,
      33.8721046
    ]
  },
  {
    "name": "كفرا",
    "coordinates": [
      35.3454852,
      33.1698334
    ]
  },
  {
    "name": "ياطر",
    "coordinates": [
      35.3317416,
      33.1554633
    ]
  },
  {
    "name": "قرحا",
    "coordinates": [
      36.444633,
      34.6219164
    ]
  },
  {
    "name": "ذوق الخراب",
    "coordinates": [
      35.6013561,
      33.9436277
    ]
  },
  {
    "name": "عيتنيت",
    "coordinates": [
      35.6706393,
      33.5612676
    ]
  },
  {
    "name": "تعنايل",
    "coordinates": [
      35.8720779,
      33.7960714
    ]
  },
  {
    "name": "العريضة",
    "coordinates": [
      35.9786571,
      34.6328716
    ]
  },
  {
    "name": "كنيسة",
    "coordinates": [
      36.4390218,
      34.6006977
    ]
  },
  {
    "name": "السماقية",
    "coordinates": [
      36.0027015,
      34.6390782
    ]
  },
  {
    "name": "كرم سدة",
    "coordinates": [
      35.8934346,
      34.3064342
    ]
  },
  {
    "name": "كفر فو",
    "coordinates": [
      35.8819827,
      34.3170274
    ]
  },
  {
    "name": "رأس كيفا",
    "coordinates": [
      35.8695079,
      34.3113792
    ]
  },
  {
    "name": "كوسبا",
    "coordinates": [
      35.8503349,
      34.2983659
    ]
  },
  {
    "name": "كفر عقا",
    "coordinates": [
      35.8361869,
      34.3037018
    ]
  },
  {
    "name": "طورزا",
    "coordinates": [
      35.8980341,
      34.2829326
    ]
  },
  {
    "name": "قنات",
    "coordinates": [
      35.8954383,
      34.2529047
    ]
  },
  {
    "name": "عيناتا",
    "coordinates": [
      36.0816815,
      34.1867531
    ]
  },
  {
    "name": "تل البيرة",
    "coordinates": [
      36.0586881,
      34.622815
    ]
  },
  {
    "name": "تل بيبي",
    "coordinates": [
      36.0066053,
      34.6169909
    ]
  },
  {
    "name": "الكنيسة",
    "coordinates": [
      36.0212297,
      34.6187544
    ]
  },
  {
    "name": "المغراق",
    "coordinates": [
      36.0185689,
      34.6100037
    ]
  },
  {
    "name": "حكر الضهري",
    "coordinates": [
      36.0235035,
      34.629958
    ]
  },
  {
    "name": "عين زبدة",
    "coordinates": [
      35.7036285,
      33.6221731
    ]
  },
  {
    "name": "قرعون",
    "coordinates": [
      35.72039,
      33.5632423
    ]
  },
  {
    "name": "بعلول",
    "coordinates": [
      35.7478055,
      33.5880555
    ]
  },
  {
    "name": "لالا",
    "coordinates": [
      35.7629472,
      33.6008839
    ]
  },
  {
    "name": "عاقورة",
    "coordinates": [
      35.9029559,
      34.1211831
    ]
  },
  {
    "name": "دوما",
    "coordinates": [
      35.8407282,
      34.2045724
    ]
  },
  {
    "name": "حرايق",
    "coordinates": [
      35.8544289,
      34.20655
    ]
  },
  {
    "name": "بشعلة",
    "coordinates": [
      35.8234448,
      34.2024437
    ]
  },
  {
    "name": "بلعه",
    "coordinates": [
      35.8745203,
      34.1783564
    ]
  },
  {
    "name": "عبلة",
    "coordinates": [
      36.2740782,
      34.1510867
    ]
  },
  {
    "name": "مجدل",
    "coordinates": [
      35.7945084,
      34.2539088
    ]
  },
  {
    "name": "حيطورة",
    "coordinates": [
      35.5522757,
      33.5193572
    ]
  },
  {
    "name": "قيتولي",
    "coordinates": [
      35.5521643,
      33.5373731
    ]
  },
  {
    "name": "المكنونية",
    "coordinates": [
      35.5476368,
      33.5289184
    ]
  },
  {
    "name": "جسر رأس النبع",
    "coordinates": [
      35.5073088,
      33.8782446
    ]
  },
  {
    "name": "قب إلياس",
    "coordinates": [
      35.8256221,
      33.798492
    ]
  },
  {
    "name": "مكسة",
    "coordinates": [
      35.8307719,
      33.8086419
    ]
  },
  {
    "name": "زبدل",
    "coordinates": [
      35.8368176,
      33.8142223
    ]
  },
  {
    "name": "مار موسى",
    "coordinates": [
      35.6861495,
      33.9009865
    ]
  },
  {
    "name": "سفيلة",
    "coordinates": [
      35.6756129,
      33.8856226
    ]
  },
  {
    "name": "زرعون",
    "coordinates": [
      35.7091254,
      33.89591
    ]
  },
  {
    "name": "مقنة",
    "coordinates": [
      36.2064636,
      34.0774297
    ]
  },
  {
    "name": "كنيسة",
    "coordinates": [
      36.1663699,
      34.1178713
    ]
  },
  {
    "name": "شعت",
    "coordinates": [
      36.2317809,
      34.1418501
    ]
  },
  {
    "name": "دير عشاير",
    "coordinates": [
      36.0106623,
      33.5565596
    ]
  },
  {
    "name": "ريحان",
    "coordinates": [
      35.5632591,
      33.4389263
    ]
  },
  {
    "name": "تنورة",
    "coordinates": [
      35.8015547,
      33.4734986
    ]
  },
  {
    "name": "بكيفا",
    "coordinates": [
      35.8199774,
      33.4944064
    ]
  },
  {
    "name": "النبعات",
    "coordinates": [
      35.7551976,
      33.4889521
    ]
  },
  {
    "name": "ثلثاتة",
    "coordinates": [
      35.7466015,
      33.495841
    ]
  },
  {
    "name": "عيتيت",
    "coordinates": [
      35.3060084,
      33.2249659
    ]
  },
  {
    "name": "بر إلياس",
    "coordinates": [
      35.9043906,
      33.7743538
    ]
  },
  {
    "name": "تربل",
    "coordinates": [
      35.9847944,
      33.8182589
    ]
  },
  {
    "name": "معاملتين",
    "coordinates": [
      35.6455516,
      34.0089691
    ]
  },
  {
    "name": "غدير",
    "coordinates": [
      35.6343423,
      33.9774972
    ]
  },
  {
    "name": "قانا",
    "coordinates": [
      35.2984588,
      33.20895
    ]
  },
  {
    "name": "المعيزية",
    "coordinates": [
      35.9128529,
      34.4020942
    ]
  },
  {
    "name": "زغرتا",
    "coordinates": [
      35.8967113,
      34.3929847
    ]
  },
  {
    "name": "شويفات",
    "coordinates": [
      35.5161455,
      33.8169808
    ]
  },
  {
    "name": "جرمق",
    "coordinates": [
      35.5402846,
      33.3883164
    ]
  },
  {
    "name": "بسوس",
    "coordinates": [
      35.5800643,
      33.8170777
    ]
  },
  {
    "name": "بشامون",
    "coordinates": [
      35.5315831,
      33.7819483
    ]
  },
  {
    "name": "الكحالة",
    "coordinates": [
      35.5829141,
      33.8226878
    ]
  },
  {
    "name": "رملية",
    "coordinates": [
      35.6482207,
      33.7477813
    ]
  },
  {
    "name": "صوفر",
    "coordinates": [
      35.7012197,
      33.8020548
    ]
  },
  {
    "name": "سوق الغرب",
    "coordinates": [
      35.5717492,
      33.7900253
    ]
  },
  {
    "name": "لقلوق",
    "coordinates": [
      35.8734628,
      34.1388062
    ]
  },
  {
    "name": "يانوح",
    "coordinates": [
      35.884037,
      34.1005821
    ]
  },
  {
    "name": "حجولا",
    "coordinates": [
      35.7442889,
      34.1339594
    ]
  },
  {
    "name": "حبوس",
    "coordinates": [
      35.6417942,
      33.9294493
    ]
  },
  {
    "name": "عين عار",
    "coordinates": [
      35.6448612,
      33.9228105
    ]
  },
  {
    "name": "قرنة شهوان",
    "coordinates": [
      35.6259691,
      33.9152691
    ]
  },
  {
    "name": "زكريت",
    "coordinates": [
      35.6319498,
      33.9364451
    ]
  },
  {
    "name": "دير طاميش",
    "coordinates": [
      35.6209259,
      33.9401345
    ]
  },
  {
    "name": "مزرعة يشوع",
    "coordinates": [
      35.6327031,
      33.9300335
    ]
  },
  {
    "name": "مزرعة دير عوكر",
    "coordinates": [
      35.6078171,
      33.9318808
    ]
  },
  {
    "name": "دير مار عبدا المشمر",
    "coordinates": [
      35.6331253,
      33.942639
    ]
  },
  {
    "name": "حارة البلان",
    "coordinates": [
      35.6002047,
      33.9403083
    ]
  },
  {
    "name": "قرنة الحمرا",
    "coordinates": [
      35.6480169,
      33.9359544
    ]
  },
  {
    "name": "مزرعة الحضيرة",
    "coordinates": [
      35.6056671,
      33.9307238
    ]
  },
  {
    "name": "الرابية",
    "coordinates": [
      35.6056529,
      33.9191383
    ]
  },
  {
    "name": "غبالة",
    "coordinates": [
      35.7222309,
      34.0542636
    ]
  },
  {
    "name": "غلبون",
    "coordinates": [
      35.7053353,
      34.1738231
    ]
  },
  {
    "name": "بحنس",
    "coordinates": [
      35.6566387,
      33.9050682
    ]
  },
  {
    "name": "جعيتا",
    "coordinates": [
      35.6447525,
      33.9509506
    ]
  },
  {
    "name": "كفر حونة",
    "coordinates": [
      35.5850987,
      33.4939236
    ]
  },
  {
    "name": "بريصا",
    "coordinates": [
      36.3161476,
      34.4434207
    ]
  },
  {
    "name": "شملان",
    "coordinates": [
      35.5455332,
      33.7817121
    ]
  },
  {
    "name": "عين عنوب",
    "coordinates": [
      35.5426135,
      33.7858185
    ]
  },
  {
    "name": "عيتات",
    "coordinates": [
      35.5575759,
      33.7953076
    ]
  },
  {
    "name": "بمكين",
    "coordinates": [
      35.5697952,
      33.7984421
    ]
  },
  {
    "name": "عين الرمانة",
    "coordinates": [
      35.5886568,
      33.8041606
    ]
  },
  {
    "name": "قماطية",
    "coordinates": [
      35.5795137,
      33.802016
    ]
  },
  {
    "name": "خلدة",
    "coordinates": [
      35.4857182,
      33.7817608
    ]
  },
  {
    "name": "شياح",
    "coordinates": [
      35.5179838,
      33.8652121
    ]
  },
  {
    "name": "غبيري",
    "coordinates": [
      35.5056707,
      33.8597545
    ]
  },
  {
    "name": "حازمية",
    "coordinates": [
      35.5373999,
      33.8540992
    ]
  },
  {
    "name": "فرن الشباك",
    "coordinates": [
      35.5222897,
      33.8719938
    ]
  },
  {
    "name": "بيت شباب",
    "coordinates": [
      35.6723258,
      33.9275343
    ]
  },
  {
    "name": "بوشرية",
    "coordinates": [
      35.5548666,
      33.8894594
    ]
  },
  {
    "name": "جل الديب",
    "coordinates": [
      35.5818721,
      33.9085375
    ]
  },
  {
    "name": "عجلتون",
    "coordinates": [
      35.6856246,
      33.9651447
    ]
  },
  {
    "name": "كفر حيم",
    "coordinates": [
      35.5232245,
      33.6880305
    ]
  },
  {
    "name": "عقيبة",
    "coordinates": [
      35.6450875,
      34.0567157
    ]
  },
  {
    "name": "ميسات",
    "coordinates": [
      35.6193188,
      33.2626526
    ]
  },
  {
    "name": "دير الأحمر",
    "coordinates": [
      36.1312578,
      34.1250724
    ]
  },
  {
    "name": "بنت جبيل",
    "coordinates": [
      35.4327933,
      33.1195382
    ]
  },
  {
    "name": "عيناتا",
    "coordinates": [
      35.4397229,
      33.1292043
    ]
  },
  {
    "name": "الحدث",
    "coordinates": [
      35.5363297,
      33.8349983
    ]
  },
  {
    "name": "سلعاتا",
    "coordinates": [
      35.664593,
      34.2797548
    ]
  },
  {
    "name": "عيتا الشعب",
    "coordinates": [
      35.340805,
      33.0991247
    ]
  },
  {
    "name": "رميش",
    "coordinates": [
      35.3678431,
      33.0777979
    ]
  },
  {
    "name": "شبعا",
    "coordinates": [
      35.7494258,
      33.3444753
    ]
  },
  {
    "name": "ميس الجبل",
    "coordinates": [
      35.5241964,
      33.1699525
    ]
  },
  {
    "name": "الفرديس",
    "coordinates": [
      35.6673999,
      33.3710683
    ]
  },
  {
    "name": "الهبارية",
    "coordinates": [
      35.6961725,
      33.3681176
    ]
  },
  {
    "name": "جب جنين",
    "coordinates": [
      35.7839988,
      33.6262457
    ]
  },
  {
    "name": "فرزل",
    "coordinates": [
      35.9434266,
      33.8746506
    ]
  },
  {
    "name": "يارون",
    "coordinates": [
      35.422095,
      33.0810393
    ]
  },
  {
    "name": "مارون الرأس",
    "coordinates": [
      35.4449613,
      33.1030866
    ]
  },
  {
    "name": "صموخة",
    "coordinates": [
      35.3509441,
      33.0680728
    ]
  },
  {
    "name": "مروحين",
    "coordinates": [
      35.2767362,
      33.108647
    ]
  },
  {
    "name": "قوزح",
    "coordinates": [
      35.3400665,
      33.1215317
    ]
  },
  {
    "name": "النبي شيث",
    "coordinates": [
      36.1108887,
      33.8726783
    ]
  },
  {
    "name": "سرعين الفوقا",
    "coordinates": [
      36.0927163,
      33.8780377
    ]
  },
  {
    "name": "المرج",
    "coordinates": [
      35.8814091,
      33.7622531
    ]
  },
  {
    "name": "منيارة",
    "coordinates": [
      36.0595611,
      34.5313427
    ]
  },
  {
    "name": "داريا",
    "coordinates": [
      35.8696314,
      34.3293161
    ]
  },
  {
    "name": "مرجعيون",
    "coordinates": [
      35.5902134,
      33.3592529
    ]
  },
  {
    "name": "عدلون",
    "coordinates": [
      35.274391,
      33.4048204
    ]
  },
  {
    "name": "مزرعة المنهلي",
    "coordinates": [
      35.267614,
      33.4000832
    ]
  },
  {
    "name": "أميون",
    "coordinates": [
      35.816685,
      34.3004082
    ]
  },
  {
    "name": "الصالحية",
    "coordinates": [
      35.7124862,
      34.0765012
    ]
  },
  {
    "name": "الخرايب",
    "coordinates": [
      35.7076418,
      34.0755177
    ]
  },
  {
    "name": "بصرما",
    "coordinates": [
      35.8412432,
      34.3341696
    ]
  },
  {
    "name": "تحوم",
    "coordinates": [
      35.6615889,
      34.2133549
    ]
  },
  {
    "name": "لبعا",
    "coordinates": [
      35.4513252,
      33.5477435
    ]
  },
  {
    "name": "صفاريه",
    "coordinates": [
      35.5018258,
      33.5540382
    ]
  },
  {
    "name": "عين المير",
    "coordinates": [
      35.453943,
      33.5404781
    ]
  },
  {
    "name": "عنان",
    "coordinates": [
      35.5089712,
      33.5666799
    ]
  },
  {
    "name": "الحمصية",
    "coordinates": [
      35.5508566,
      33.549961
    ]
  },
  {
    "name": "روم",
    "coordinates": [
      35.5280685,
      33.5513916
    ]
  },
  {
    "name": "حنيدر",
    "coordinates": [
      36.4281656,
      34.6150151
    ]
  },
  {
    "name": "المجدل",
    "coordinates": [
      36.3967556,
      34.6285133
    ]
  },
  {
    "name": "المقيبلة",
    "coordinates": [
      36.3532686,
      34.6438454
    ]
  },
  {
    "name": "عبادية",
    "coordinates": [
      35.6215801,
      33.8368519
    ]
  },
  {
    "name": "رأس المتن",
    "coordinates": [
      35.6615925,
      33.848858
    ]
  },
  {
    "name": "شليفا",
    "coordinates": [
      36.1012673,
      34.0847696
    ]
  },
  {
    "name": "حصرون",
    "coordinates": [
      35.9812546,
      34.2411114
    ]
  },
  {
    "name": "دبين",
    "coordinates": [
      35.5939154,
      33.3698001
    ]
  },
  {
    "name": "بقعاتة كنعان",
    "coordinates": [
      35.7685459,
      33.9635927
    ]
  },
  {
    "name": "بليدا",
    "coordinates": [
      35.5152661,
      33.1398279
    ]
  },
  {
    "name": "القبيات",
    "coordinates": [
      36.2803399,
      34.568685
    ]
  },
  {
    "name": "أكروم",
    "coordinates": [
      36.3636532,
      34.5441285
    ]
  },
  {
    "name": "قنيا",
    "coordinates": [
      36.3684265,
      34.586489
    ]
  },
  {
    "name": "كفر تون",
    "coordinates": [
      36.3576692,
      34.5587091
    ]
  },
  {
    "name": "البيرة",
    "coordinates": [
      36.2331123,
      34.587481
    ]
  },
  {
    "name": "دير البلمند",
    "coordinates": [
      35.7800817,
      34.3650265
    ]
  },
  {
    "name": "قلحات",
    "coordinates": [
      35.7810668,
      34.3565599
    ]
  },
  {
    "name": "زكرون",
    "coordinates": [
      35.7527771,
      34.3533904
    ]
  },
  {
    "name": "عينطورة",
    "coordinates": [
      35.6351424,
      33.9598821
    ]
  },
  {
    "name": "فيع",
    "coordinates": [
      35.7899237,
      34.3480329
    ]
  },
  {
    "name": "دار بعشتار",
    "coordinates": [
      35.793861,
      34.2727425
    ]
  },
  {
    "name": "مستيتا",
    "coordinates": [
      35.6596375,
      34.1047968
    ]
  },
  {
    "name": "الجية",
    "coordinates": [
      35.4036543,
      33.6455445
    ]
  },
  {
    "name": "الخنشارة",
    "coordinates": [
      35.7382313,
      33.9224809
    ]
  },
  {
    "name": "مرجبا",
    "coordinates": [
      35.7535635,
      33.9163013
    ]
  },
  {
    "name": "بتغرين",
    "coordinates": [
      35.7445191,
      33.9303973
    ]
  },
  {
    "name": "وطى المروج",
    "coordinates": [
      35.7436263,
      33.909964
    ]
  },
  {
    "name": "زغرين",
    "coordinates": [
      35.7126104,
      33.9248627
    ]
  },
  {
    "name": "حملايا",
    "coordinates": [
      35.7072777,
      33.9397127
    ]
  },
  {
    "name": "فريكة",
    "coordinates": [
      35.6576004,
      33.9345067
    ]
  },
  {
    "name": "قلمون",
    "coordinates": [
      35.7881306,
      34.3879308
    ]
  },
  {
    "name": "برسا",
    "coordinates": [
      35.8278246,
      34.3882233
    ]
  },
  {
    "name": "عين عكرين",
    "coordinates": [
      35.8449153,
      34.287854
    ]
  },
  {
    "name": "بزيزا",
    "coordinates": [
      35.8205685,
      34.2731876
    ]
  },
  {
    "name": "زندوقة",
    "coordinates": [
      35.637567,
      33.8649722
    ]
  },
  {
    "name": "قليعات",
    "coordinates": [
      35.7142884,
      33.9727584
    ]
  },
  {
    "name": "بقعاتا",
    "coordinates": [
      35.7286305,
      34.003277
    ]
  },
  {
    "name": "بريتال",
    "coordinates": [
      36.1470753,
      33.938595
    ]
  },
  {
    "name": "الخضر",
    "coordinates": [
      36.1210633,
      33.9045283
    ]
  },
  {
    "name": "حاصبيا",
    "coordinates": [
      35.6811724,
      33.3964734
    ]
  },
  {
    "name": "المنية",
    "coordinates": [
      35.9304694,
      34.4757384
    ]
  },
  {
    "name": "عين الخروبة",
    "coordinates": [
      35.6999981,
      33.9356873
    ]
  },
  {
    "name": "راشيا",
    "coordinates": [
      35.8448806,
      33.5014243
    ]
  },
  {
    "name": "غزة",
    "coordinates": [
      35.8276513,
      33.6711831
    ]
  },
  {
    "name": "كفر مشكي",
    "coordinates": [
      35.7661993,
      33.5147473
    ]
  },
  {
    "name": "عين التينة",
    "coordinates": [
      35.6423478,
      33.5021232
    ]
  },
  {
    "name": "بيت لاهيا",
    "coordinates": [
      35.8024631,
      33.4840472
    ]
  },
  {
    "name": "كفتون‎",
    "coordinates": [
      35.7686051,
      34.2666746
    ]
  },
  {
    "name": "كفيفان",
    "coordinates": [
      35.7186074,
      34.23083
    ]
  },
  {
    "name": "بلا",
    "coordinates": [
      35.8918324,
      34.2652671
    ]
  },
  {
    "name": "حدشيت",
    "coordinates": [
      35.9840098,
      34.2552661
    ]
  },
  {
    "name": "حصارات",
    "coordinates": [
      35.6889286,
      34.1663084
    ]
  },
  {
    "name": "قرقف",
    "coordinates": [
      36.0194771,
      34.4871227
    ]
  },
  {
    "name": "شدرا",
    "coordinates": [
      36.3202152,
      34.6188689
    ]
  },
  {
    "name": "عندقت",
    "coordinates": [
      36.3057649,
      34.5870739
    ]
  },
  {
    "name": "كفر قاهل",
    "coordinates": [
      35.8491397,
      34.3566475
    ]
  },
  {
    "name": "منجز",
    "coordinates": [
      36.248704,
      34.6161982
    ]
  },
  {
    "name": "شربيلا",
    "coordinates": [
      36.1484822,
      34.5823954
    ]
  },
  {
    "name": "زبود",
    "coordinates": [
      36.3190692,
      34.2414124
    ]
  },
  {
    "name": "نحلة",
    "coordinates": [
      36.2586059,
      34.0422845
    ]
  },
  {
    "name": "تولا",
    "coordinates": [
      35.7272679,
      34.2004204
    ]
  },
  {
    "name": "بخعاز",
    "coordinates": [
      35.6673796,
      34.1880045
    ]
  },
  {
    "name": "إده",
    "coordinates": [
      35.6653638,
      34.1417602
    ]
  },
  {
    "name": "عاليتا",
    "coordinates": [
      35.6907042,
      34.0908612
    ]
  },
  {
    "name": "كوكبا",
    "coordinates": [
      35.7820602,
      33.5284014
    ]
  },
  {
    "name": "عز العرب",
    "coordinates": [
      35.8028185,
      33.5209395
    ]
  },
  {
    "name": "جبل عين التينة",
    "coordinates": [
      35.6317078,
      33.5072068
    ]
  },
  {
    "name": "مشغرة",
    "coordinates": [
      35.6541446,
      33.5306063
    ]
  },
  {
    "name": "خرايب",
    "coordinates": [
      36.3028071,
      34.2402564
    ]
  },
  {
    "name": "حلبتا",
    "coordinates": [
      36.2880421,
      34.2557211
    ]
  },
  {
    "name": "المعيسرة",
    "coordinates": [
      36.2924105,
      34.2765982
    ]
  },
  {
    "name": "يونين",
    "coordinates": [
      36.2751575,
      34.0789982
    ]
  },
  {
    "name": "خورماتا",
    "coordinates": [
      36.2527954,
      34.0873015
    ]
  },
  {
    "name": "ريحا",
    "coordinates": [
      36.1922096,
      34.1523254
    ]
  },
  {
    "name": "كرم عقيل",
    "coordinates": [
      36.2240168,
      34.141882
    ]
  },
  {
    "name": "رسم الحدث",
    "coordinates": [
      36.2758048,
      34.1410244
    ]
  },
  {
    "name": "كفر قوق",
    "coordinates": [
      35.892228,
      33.5344612
    ]
  },
  {
    "name": "الكساير",
    "coordinates": [
      35.866167,
      33.5341682
    ]
  },
  {
    "name": "خلة حبيبي",
    "coordinates": [
      35.8765056,
      33.5404699
    ]
  },
  {
    "name": "الوعرات",
    "coordinates": [
      35.910832,
      33.5575704
    ]
  },
  {
    "name": "كوكبا السوق",
    "coordinates": [
      35.6384678,
      33.3840797
    ]
  },
  {
    "name": "حور تعلا",
    "coordinates": [
      36.1415639,
      33.9178997
    ]
  },
  {
    "name": "حوش بردى",
    "coordinates": [
      36.120528,
      34.0110001
    ]
  },
  {
    "name": "مراح الخوخ",
    "coordinates": [
      36.3546207,
      34.5874382
    ]
  },
  {
    "name": "تلة جورة النجاص",
    "coordinates": [
      36.3589126,
      34.5763622
    ]
  },
  {
    "name": "البازورية",
    "coordinates": [
      35.2713871,
      33.2533555
    ]
  },
  {
    "name": "عيحا",
    "coordinates": [
      35.877613,
      33.5010757
    ]
  },
  {
    "name": "النبي رشاد",
    "coordinates": [
      36.0382163,
      33.9938614
    ]
  },
  {
    "name": "الحدث",
    "coordinates": [
      36.0280842,
      34.0010232
    ]
  },
  {
    "name": "كفر دان",
    "coordinates": [
      36.0473189,
      34.0113584
    ]
  },
  {
    "name": "عبري",
    "coordinates": [
      35.7841533,
      34.0754513
    ]
  },
  {
    "name": "قطين",
    "coordinates": [
      35.7061329,
      34.0244858
    ]
  },
  {
    "name": "جورة مهاد",
    "coordinates": [
      35.7366343,
      34.0416754
    ]
  },
  {
    "name": "بزحل",
    "coordinates": [
      35.6989951,
      34.0788721
    ]
  },
  {
    "name": "شواغير",
    "coordinates": [
      36.4273381,
      34.4049428
    ]
  },
  {
    "name": "تل الفار",
    "coordinates": [
      36.4123729,
      34.4131432
    ]
  },
  {
    "name": "المنصورية",
    "coordinates": [
      36.4084823,
      34.4270861
    ]
  },
  {
    "name": "البويضة",
    "coordinates": [
      36.4157971,
      34.4372717
    ]
  },
  {
    "name": "ناصرية",
    "coordinates": [
      36.4228749,
      34.4505291
    ]
  },
  {
    "name": "حبالين",
    "coordinates": [
      35.684114,
      34.158224
    ]
  },
  {
    "name": "جورة بدران",
    "coordinates": [
      35.7123379,
      34.060684
    ]
  },
  {
    "name": "عين الريحانة",
    "coordinates": [
      35.6473181,
      33.959664
    ]
  },
  {
    "name": "وطى الجوز",
    "coordinates": [
      35.7574112,
      34.0152696
    ]
  },
  {
    "name": "عين الدلبة",
    "coordinates": [
      35.7638708,
      34.0287309
    ]
  },
  {
    "name": "بيت منذر",
    "coordinates": [
      35.9121952,
      34.2599931
    ]
  },
  {
    "name": "سهيلة",
    "coordinates": [
      35.6595425,
      33.9592897
    ]
  },
  {
    "name": "عين قنيا",
    "coordinates": [
      35.7058968,
      33.4014021
    ]
  },
  {
    "name": "شويا",
    "coordinates": [
      35.7145115,
      33.3947537
    ]
  },
  {
    "name": "القليعة",
    "coordinates": [
      35.5708924,
      33.334772
    ]
  },
  {
    "name": "برج الملوك",
    "coordinates": [
      35.5631656,
      33.3230471
    ]
  },
  {
    "name": "دير ميماس",
    "coordinates": [
      35.5467215,
      33.3020815
    ]
  },
  {
    "name": "ميفدون",
    "coordinates": [
      35.4772269,
      33.3484623
    ]
  },
  {
    "name": "معاصر الشوف",
    "coordinates": [
      35.6706174,
      33.66832
    ]
  },
  {
    "name": "بتلون",
    "coordinates": [
      35.6522101,
      33.6954999
    ]
  },
  {
    "name": "فوارة",
    "coordinates": [
      35.6408587,
      33.7114315
    ]
  },
  {
    "name": "كفر نبرخ‎",
    "coordinates": [
      35.6332932,
      33.6947037
    ]
  },
  {
    "name": "كفر قطرة",
    "coordinates": [
      35.5855419,
      33.711895
    ]
  },
  {
    "name": "جرنايا",
    "coordinates": [
      35.4740804,
      33.488087
    ]
  },
  {
    "name": "حاروف",
    "coordinates": [
      35.4430582,
      33.3742285
    ]
  },
  {
    "name": "رشميا",
    "coordinates": [
      35.5992021,
      33.7366153
    ]
  },
  {
    "name": "القطراني",
    "coordinates": [
      35.6036357,
      33.4402001
    ]
  },
  {
    "name": "الصالحاني",
    "coordinates": [
      35.3032712,
      33.1291417
    ]
  },
  {
    "name": "فرون",
    "coordinates": [
      35.4278612,
      33.2947191
    ]
  },
  {
    "name": "مجدل المعوش",
    "coordinates": [
      35.6252962,
      33.7262896
    ]
  },
  {
    "name": "المشرفة",
    "coordinates": [
      35.655968,
      33.7606388
    ]
  },
  {
    "name": "منصورة",
    "coordinates": [
      35.8154281,
      33.6789442
    ]
  },
  {
    "name": "ناعمة",
    "coordinates": [
      35.464206,
      33.7450161
    ]
  },
  {
    "name": "عمارة شلهوب",
    "coordinates": [
      35.5685954,
      33.8973287
    ]
  },
  {
    "name": "مجذوب",
    "coordinates": [
      35.5969126,
      33.9020482
    ]
  },
  {
    "name": "المسقى",
    "coordinates": [
      35.6459928,
      33.8821637
    ]
  },
  {
    "name": "قصيبة",
    "coordinates": [
      35.6508712,
      33.8665036
    ]
  },
  {
    "name": "دبعال",
    "coordinates": [
      35.3489335,
      33.249218
    ]
  },
  {
    "name": "زبوغا",
    "coordinates": [
      35.7357905,
      33.9530965
    ]
  },
  {
    "name": "سفيلة",
    "coordinates": [
      35.6997284,
      33.9424299
    ]
  },
  {
    "name": "عين علق",
    "coordinates": [
      35.6587923,
      33.9201235
    ]
  },
  {
    "name": "عين القبو",
    "coordinates": [
      35.7608928,
      33.9404127
    ]
  },
  {
    "name": "العيون",
    "coordinates": [
      35.6531311,
      33.8828354
    ]
  },
  {
    "name": "عيرون",
    "coordinates": [
      35.7022438,
      33.9078843
    ]
  },
  {
    "name": "أبو ميزان",
    "coordinates": [
      35.7220848,
      33.9396208
    ]
  },
  {
    "name": "مار مخايل بنابيل",
    "coordinates": [
      35.7353788,
      33.9007909
    ]
  },
  {
    "name": "بحرصاف",
    "coordinates": [
      35.6675525,
      33.9136431
    ]
  },
  {
    "name": "دير شمرا",
    "coordinates": [
      35.7114032,
      33.9464136
    ]
  },
  {
    "name": "ضهر الحصين",
    "coordinates": [
      35.5609999,
      33.8693432
    ]
  },
  {
    "name": "مار شعيا",
    "coordinates": [
      35.6453352,
      33.8940626
    ]
  },
  {
    "name": "مشيخا",
    "coordinates": [
      35.7437172,
      33.8855893
    ]
  },
  {
    "name": "مكلس",
    "coordinates": [
      35.556413,
      33.8607665
    ]
  },
  {
    "name": "المشرح",
    "coordinates": [
      35.6486821,
      33.8871452
    ]
  },
  {
    "name": "ساقية المسك",
    "coordinates": [
      35.6775745,
      33.9182049
    ]
  },
  {
    "name": "الغابة",
    "coordinates": [
      35.6404802,
      33.8818002
    ]
  },
  {
    "name": "القعقور",
    "coordinates": [
      35.7156976,
      33.8931905
    ]
  },
  {
    "name": "سد البوشرية",
    "coordinates": [
      35.563148,
      33.8759308
    ]
  },
  {
    "name": "عينطورة",
    "coordinates": [
      35.7750148,
      33.8866236
    ]
  },
  {
    "name": "دير مار روكز",
    "coordinates": [
      35.5539188,
      33.8676546
    ]
  },
  {
    "name": "ضهر صوان",
    "coordinates": [
      35.6583929,
      33.9037162
    ]
  },
  {
    "name": "دميت",
    "coordinates": [
      35.5059639,
      33.6926742
    ]
  },
  {
    "name": "أرصون",
    "coordinates": [
      35.6891456,
      33.8587204
    ]
  },
  {
    "name": "قرطاضة",
    "coordinates": [
      35.6291044,
      33.8619203
    ]
  },
  {
    "name": "كفر عمي",
    "coordinates": [
      35.5934027,
      33.7679312
    ]
  },
  {
    "name": "كفر شيما",
    "coordinates": [
      35.5355398,
      33.8136952
    ]
  },
  {
    "name": "هرهريا",
    "coordinates": [
      35.6986744,
      34.0248484
    ]
  },
  {
    "name": "عرمتى",
    "coordinates": [
      35.5744169,
      33.4618484
    ]
  },
  {
    "name": "المطلة",
    "coordinates": [
      35.5392976,
      33.6106501
    ]
  },
  {
    "name": "غريفة",
    "coordinates": [
      35.5519869,
      33.6392369
    ]
  },
  {
    "name": "بعقلين",
    "coordinates": [
      35.5635483,
      33.6773922
    ]
  },
  {
    "name": "زلاية",
    "coordinates": [
      35.6707199,
      33.4587999
    ]
  },
  {
    "name": "بطمة",
    "coordinates": [
      35.6223414,
      33.6612564
    ]
  },
  {
    "name": "سحمر",
    "coordinates": [
      35.6907891,
      33.5191638
    ]
  },
  {
    "name": "حوش حالا",
    "coordinates": [
      36.0005221,
      33.8474203
    ]
  },
  {
    "name": "الخيام",
    "coordinates": [
      35.6089702,
      33.3272226
    ]
  },
  {
    "name": "بتدين اللقش",
    "coordinates": [
      35.557823,
      33.5687503
    ]
  },
  {
    "name": "عبرا",
    "coordinates": [
      35.4062924,
      33.5661782
    ]
  },
  {
    "name": "إركي",
    "coordinates": [
      35.4150377,
      33.4603412
    ]
  },
  {
    "name": "بقسطة",
    "coordinates": [
      35.3998742,
      33.5762869
    ]
  },
  {
    "name": "كفر حتى",
    "coordinates": [
      35.4517632,
      33.504197
    ]
  },
  {
    "name": "طنبوريت",
    "coordinates": [
      35.4149607,
      33.5167546
    ]
  },
  {
    "name": "تفاحتا",
    "coordinates": [
      35.3684648,
      33.4398544
    ]
  },
  {
    "name": "عنقون",
    "coordinates": [
      35.4320305,
      33.5007599
    ]
  },
  {
    "name": "بنعفول",
    "coordinates": [
      35.4212612,
      33.4834001
    ]
  },
  {
    "name": "خرطوم",
    "coordinates": [
      35.3711184,
      33.4072599
    ]
  },
  {
    "name": "زيتا",
    "coordinates": [
      35.3927784,
      33.5047789
    ]
  },
  {
    "name": "الفنار",
    "coordinates": [
      35.5748183,
      33.8803602
    ]
  },
  {
    "name": "عين سعادة",
    "coordinates": [
      35.5825831,
      33.8647483
    ]
  },
  {
    "name": "بياقوت",
    "coordinates": [
      35.583247,
      33.8956245
    ]
  },
  {
    "name": "مزهر",
    "coordinates": [
      35.5952947,
      33.9084274
    ]
  },
  {
    "name": "بصاليم",
    "coordinates": [
      35.6044683,
      33.899265
    ]
  },
  {
    "name": "برمانا",
    "coordinates": [
      35.6323372,
      33.8829505
    ]
  },
  {
    "name": "قناريت",
    "coordinates": [
      35.3795222,
      33.5028189
    ]
  },
  {
    "name": "درب السيم",
    "coordinates": [
      35.3813599,
      33.5345768
    ]
  },
  {
    "name": "حارة صيدا",
    "coordinates": [
      35.3962267,
      33.5549888
    ]
  },
  {
    "name": "مغدوشة",
    "coordinates": [
      35.386322,
      33.52016
    ]
  },
  {
    "name": "العدوسية",
    "coordinates": [
      35.3456888,
      33.4691968
    ]
  },
  {
    "name": "عقتنيت",
    "coordinates": [
      35.3806894,
      33.4890687
    ]
  },
  {
    "name": "عرب الجل",
    "coordinates": [
      35.4566541,
      33.4830374
    ]
  },
  {
    "name": "كفر ملكي",
    "coordinates": [
      35.4785343,
      33.5019243
    ]
  },
  {
    "name": "عين الدلب",
    "coordinates": [
      35.4050273,
      33.5416173
    ]
  },
  {
    "name": "البيسارية",
    "coordinates": [
      35.3222513,
      33.4459391
    ]
  },
  {
    "name": "البرامية",
    "coordinates": [
      35.3929749,
      33.5721633
    ]
  },
  {
    "name": "السكسكية",
    "coordinates": [
      35.283273,
      33.4392479
    ]
  },
  {
    "name": "الغازية",
    "coordinates": [
      35.372579,
      33.5193876
    ]
  },
  {
    "name": "المعمارية",
    "coordinates": [
      35.3664259,
      33.4912936
    ]
  },
  {
    "name": "النجارية",
    "coordinates": [
      35.348608,
      33.4733454
    ]
  },
  {
    "name": "الخرايب",
    "coordinates": [
      35.2997831,
      33.3450354
    ]
  },
  {
    "name": "الزرارية",
    "coordinates": [
      35.3316898,
      33.342066
    ]
  },
  {
    "name": "المية ومية",
    "coordinates": [
      35.3973333,
      33.5430552
    ]
  },
  {
    "name": "الصالحية",
    "coordinates": [
      35.4239181,
      33.5588362
    ]
  },
  {
    "name": "خزيز",
    "coordinates": [
      35.4057575,
      33.4664178
    ]
  },
  {
    "name": "كفر شلال",
    "coordinates": [
      35.4698891,
      33.494055
    ]
  },
  {
    "name": "كفر بيت",
    "coordinates": [
      35.4627022,
      33.496882
    ]
  },
  {
    "name": "الغسانية",
    "coordinates": [
      35.3592927,
      33.4201425
    ]
  },
  {
    "name": "اللوبية",
    "coordinates": [
      35.2834068,
      33.4263626
    ]
  },
  {
    "name": "زغدريا",
    "coordinates": [
      35.3948496,
      33.5318283
    ]
  },
  {
    "name": "القرية",
    "coordinates": [
      35.4181969,
      33.5375337
    ]
  },
  {
    "name": "ارزي",
    "coordinates": [
      35.2986288,
      33.333228
    ]
  },
  {
    "name": "مجدليون",
    "coordinates": [
      35.4136524,
      33.5591337
    ]
  },
  {
    "name": "علمان الشوف",
    "coordinates": [
      35.4049303,
      33.5858043
    ]
  },
  {
    "name": "كترمايا",
    "coordinates": [
      35.447537,
      33.6145446
    ]
  },
  {
    "name": "كفرفاقود",
    "coordinates": [
      35.5379574,
      33.7011876
    ]
  },
  {
    "name": "دير بابا",
    "coordinates": [
      35.5247833,
      33.6959939
    ]
  },
  {
    "name": "بعاصير",
    "coordinates": [
      35.4501725,
      33.6600515
    ]
  },
  {
    "name": "جدرا",
    "coordinates": [
      35.4074583,
      33.6345709
    ]
  },
  {
    "name": "حصروت",
    "coordinates": [
      35.5366003,
      33.626865
    ]
  },
  {
    "name": "دلهون",
    "coordinates": [
      35.4694831,
      33.6227583
    ]
  },
  {
    "name": "بكيفا",
    "coordinates": [
      35.5040644,
      33.5954056
    ]
  },
  {
    "name": "سرجبال",
    "coordinates": [
      35.511795,
      33.6845874
    ]
  },
  {
    "name": "عرب طبايا",
    "coordinates": [
      35.4413581,
      33.4878671
    ]
  },
  {
    "name": "بوارج",
    "coordinates": [
      35.814371,
      33.818915
    ]
  },
  {
    "name": "أبلح",
    "coordinates": [
      35.9639754,
      33.8715867
    ]
  },
  {
    "name": "جلالا",
    "coordinates": [
      35.858858,
      33.8134999
    ]
  },
  {
    "name": "تويتي",
    "coordinates": [
      35.8544117,
      33.8609123
    ]
  },
  {
    "name": "حزرتا",
    "coordinates": [
      35.8665468,
      33.8806886
    ]
  },
  {
    "name": "رعيت",
    "coordinates": [
      36.033907,
      33.8441969
    ]
  },
  {
    "name": "دير الغزال",
    "coordinates": [
      36.0354696,
      33.8254876
    ]
  },
  {
    "name": "حي الفيكاني",
    "coordinates": [
      36.0266384,
      33.8474019
    ]
  },
  {
    "name": "دير دلوم",
    "coordinates": [
      36.0227694,
      34.5271813
    ]
  },
  {
    "name": "رمول",
    "coordinates": [
      36.0134544,
      34.5722623
    ]
  },
  {
    "name": "الحيصة",
    "coordinates": [
      36.0520554,
      34.5936548
    ]
  },
  {
    "name": "بزال",
    "coordinates": [
      36.0409448,
      34.4685992
    ]
  },
  {
    "name": "البياضة",
    "coordinates": [
      35.9910279,
      34.5183067
    ]
  },
  {
    "name": "بريسات",
    "coordinates": [
      35.9411423,
      34.2407877
    ]
  },
  {
    "name": "بحمدون",
    "coordinates": [
      35.6594457,
      33.8030684
    ]
  },
  {
    "name": "بسرين",
    "coordinates": [
      35.6367397,
      33.7579507
    ]
  },
  {
    "name": "شميس",
    "coordinates": [
      35.4653683,
      33.6412577
    ]
  },
  {
    "name": "المسرب",
    "coordinates": [
      35.4813166,
      33.6247606
    ]
  },
  {
    "name": "حميري",
    "coordinates": [
      35.352135,
      33.2958313
    ]
  },
  {
    "name": "يارين",
    "coordinates": [
      35.2328997,
      33.1062073
    ]
  },
  {
    "name": "حوش الغنم",
    "coordinates": [
      36.0273522,
      33.8738269
    ]
  },
  {
    "name": "رياق",
    "coordinates": [
      36.0141912,
      33.8521999
    ]
  },
  {
    "name": "جديتا",
    "coordinates": [
      35.8340298,
      33.8242676
    ]
  },
  {
    "name": "مريجات",
    "coordinates": [
      35.8167828,
      33.8069826
    ]
  },
  {
    "name": "كفرسلوان",
    "coordinates": [
      35.779905,
      33.8559968
    ]
  },
  {
    "name": "جوار الحوز",
    "coordinates": [
      35.7592529,
      33.8617707
    ]
  },
  {
    "name": "الغابون",
    "coordinates": [
      35.5950518,
      33.7816024
    ]
  },
  {
    "name": "بيصور",
    "coordinates": [
      35.5681005,
      33.765236
    ]
  },
  {
    "name": "عرمون",
    "coordinates": [
      35.5203387,
      33.761118
    ]
  },
  {
    "name": "كفر متى",
    "coordinates": [
      35.5291294,
      33.7252463
    ]
  },
  {
    "name": "عبيه",
    "coordinates": [
      35.524582,
      33.7344251
    ]
  },
  {
    "name": "دقون",
    "coordinates": [
      35.5140676,
      33.7301057
    ]
  },
  {
    "name": "عين درافيل",
    "coordinates": [
      35.5080367,
      33.7478003
    ]
  },
  {
    "name": "بعورته",
    "coordinates": [
      35.5024712,
      33.7357978
    ]
  },
  {
    "name": "يرزة",
    "coordinates": [
      35.5550791,
      33.8309432
    ]
  },
  {
    "name": "بطرام",
    "coordinates": [
      35.8100487,
      34.3326342
    ]
  },
  {
    "name": "عين القش",
    "coordinates": [
      35.7017258,
      33.9232052
    ]
  },
  {
    "name": "بكفتين",
    "coordinates": [
      35.8613399,
      34.3830384
    ]
  },
  {
    "name": "بدبا",
    "coordinates": [
      35.8199468,
      34.3467944
    ]
  },
  {
    "name": "دده",
    "coordinates": [
      35.8004998,
      34.3810411
    ]
  },
  {
    "name": "علما",
    "coordinates": [
      35.8954636,
      34.4250939
    ]
  },
  {
    "name": "بوسيط",
    "coordinates": [
      35.9263238,
      34.438357
    ]
  },
  {
    "name": "عدوة",
    "coordinates": [
      35.9861241,
      34.4505442
    ]
  },
  {
    "name": "ببنين",
    "coordinates": [
      35.9956699,
      34.4980863
    ]
  },
  {
    "name": "عماره",
    "coordinates": [
      36.0098749,
      34.5319729
    ]
  },
  {
    "name": "الشيخ طابا",
    "coordinates": [
      36.0775,
      34.5321189
    ]
  },
  {
    "name": "حبشيت",
    "coordinates": [
      36.0908498,
      34.4672706
    ]
  },
  {
    "name": "جيرون",
    "coordinates": [
      36.1083584,
      34.430197
    ]
  },
  {
    "name": "حوارة",
    "coordinates": [
      36.0718819,
      34.4185516
    ]
  },
  {
    "name": "بيت جيدا",
    "coordinates": [
      36.0104656,
      34.3950362
    ]
  },
  {
    "name": "عاصون",
    "coordinates": [
      36.0108881,
      34.3847553
    ]
  },
  {
    "name": "بقاع صفرين",
    "coordinates": [
      36.0240345,
      34.3759716
    ]
  },
  {
    "name": "حامول",
    "coordinates": [
      35.1666018,
      33.1258618
    ]
  },
  {
    "name": "شمع",
    "coordinates": [
      35.2073115,
      33.1463109
    ]
  },
  {
    "name": "زبقين",
    "coordinates": [
      35.2665378,
      33.164381
    ]
  },
  {
    "name": "كونين",
    "coordinates": [
      35.4313657,
      33.147916
    ]
  },
  {
    "name": "المنصورية",
    "coordinates": [
      35.5664617,
      33.8574933
    ]
  },
  {
    "name": "بقنايا",
    "coordinates": [
      35.5888962,
      33.9030363
    ]
  },
  {
    "name": "الديشونية",
    "coordinates": [
      35.5769997,
      33.8493429
    ]
  },
  {
    "name": "مجدل ترشيش",
    "coordinates": [
      35.8006007,
      33.8933267
    ]
  },
  {
    "name": "رومية",
    "coordinates": [
      35.6146332,
      33.8819808
    ]
  },
  {
    "name": "قنابة صاليما",
    "coordinates": [
      35.6927371,
      33.8858233
    ]
  },
  {
    "name": "خلة المتين",
    "coordinates": [
      35.7261513,
      33.8985533
    ]
  },
  {
    "name": "مار بطرس كرم التين",
    "coordinates": [
      35.6856164,
      33.932324
    ]
  },
  {
    "name": "صفرا",
    "coordinates": [
      36.1650241,
      34.1476821
    ]
  },
  {
    "name": "زغلة",
    "coordinates": [
      35.6922328,
      33.4042717
    ]
  },
  {
    "name": "بزيون",
    "coordinates": [
      35.7551888,
      34.0982235
    ]
  },
  {
    "name": "عين الدلبة",
    "coordinates": [
      35.7624022,
      34.0915126
    ]
  },
  {
    "name": "كفر مسحون",
    "coordinates": [
      35.6714907,
      34.1470039
    ]
  },
  {
    "name": "كفون",
    "coordinates": [
      35.7051545,
      34.1547869
    ]
  },
  {
    "name": "غرفين",
    "coordinates": [
      35.6636065,
      34.1532943
    ]
  },
  {
    "name": "حصرايل",
    "coordinates": [
      35.6553421,
      34.1588722
    ]
  },
  {
    "name": "أدونيس",
    "coordinates": [
      35.7372408,
      34.0805217
    ]
  },
  {
    "name": "بحديدات",
    "coordinates": [
      35.7070789,
      34.1483452
    ]
  },
  {
    "name": "هابيل",
    "coordinates": [
      35.7398805,
      34.1490302
    ]
  },
  {
    "name": "ترتج",
    "coordinates": [
      35.8211701,
      34.1836459
    ]
  },
  {
    "name": "بالوع بلعا",
    "coordinates": [
      35.8703099,
      34.1746382
    ]
  },
  {
    "name": "عبيدات",
    "coordinates": [
      35.7270152,
      34.1641348
    ]
  },
  {
    "name": "بلاط",
    "coordinates": [
      35.6680724,
      34.1150293
    ]
  },
  {
    "name": "كفر كده",
    "coordinates": [
      35.6524994,
      34.2011963
    ]
  },
  {
    "name": "علمات الشمالية",
    "coordinates": [
      35.7782833,
      34.1096821
    ]
  },
  {
    "name": "علمات الجنوبية",
    "coordinates": [
      35.7819297,
      34.0999167
    ]
  },
  {
    "name": "مشمش جبيل",
    "coordinates": [
      35.7808651,
      34.1439604
    ]
  },
  {
    "name": "حصون",
    "coordinates": [
      35.7370434,
      34.0923069
    ]
  },
  {
    "name": "الفيدار",
    "coordinates": [
      35.6585786,
      34.0984527
    ]
  },
  {
    "name": "فرحت",
    "coordinates": [
      35.762289,
      34.1003296
    ]
  },
  {
    "name": "فتري",
    "coordinates": [
      35.708629,
      34.0871764
    ]
  },
  {
    "name": "المجدل",
    "coordinates": [
      35.89891,
      34.1070038
    ]
  },
  {
    "name": "سرعيتا",
    "coordinates": [
      35.8661783,
      34.0830366
    ]
  },
  {
    "name": "صوانة",
    "coordinates": [
      35.7749202,
      34.0933333
    ]
  },
  {
    "name": "دملصا",
    "coordinates": [
      35.6825008,
      34.149441
    ]
  },
  {
    "name": "كفر شلان",
    "coordinates": [
      35.9849204,
      34.4239431
    ]
  },
  {
    "name": "طاران",
    "coordinates": [
      36.0311721,
      34.4065902
    ]
  },
  {
    "name": "القطين",
    "coordinates": [
      36.0264571,
      34.3921839
    ]
  },
  {
    "name": "مرياطا",
    "coordinates": [
      35.928129,
      34.4111749
    ]
  },
  {
    "name": "بيت حسان",
    "coordinates": [
      35.9593308,
      34.3852224
    ]
  },
  {
    "name": "مزيارة",
    "coordinates": [
      35.9317002,
      34.3322075
    ]
  },
  {
    "name": "بشرناطا",
    "coordinates": [
      35.9865151,
      34.3433355
    ]
  },
  {
    "name": "بان",
    "coordinates": [
      35.9561993,
      34.2764158
    ]
  },
  {
    "name": "صخرة",
    "coordinates": [
      35.9205023,
      34.3606036
    ]
  },
  {
    "name": "حوراتا البترون",
    "coordinates": [
      35.9327066,
      34.1881374
    ]
  },
  {
    "name": "بينو",
    "coordinates": [
      36.1796194,
      34.5371022
    ]
  },
  {
    "name": "طورزيا",
    "coordinates": [
      35.7590821,
      34.1098811
    ]
  },
  {
    "name": "مشان",
    "coordinates": [
      35.7512953,
      34.0826346
    ]
  },
  {
    "name": "قرقريا",
    "coordinates": [
      35.8177884,
      34.0733039
    ]
  },
  {
    "name": "مغيره",
    "coordinates": [
      35.8733746,
      34.09772
    ]
  },
  {
    "name": "جنة",
    "coordinates": [
      35.830253,
      34.0806516
    ]
  },
  {
    "name": "عين جرين",
    "coordinates": [
      35.7618177,
      34.085
    ]
  },
  {
    "name": "كفر",
    "coordinates": [
      35.6987791,
      34.1533036
    ]
  },
  {
    "name": "مار سركيس",
    "coordinates": [
      35.8564694,
      34.0974848
    ]
  },
  {
    "name": "ميفوق",
    "coordinates": [
      35.7783994,
      34.1816447
    ]
  },
  {
    "name": "سقي رشميا",
    "coordinates": [
      35.7883778,
      34.1587078
    ]
  },
  {
    "name": "جاج",
    "coordinates": [
      35.8060308,
      34.1642932
    ]
  },
  {
    "name": "مراح السريج",
    "coordinates": [
      35.9946799,
      34.4193133
    ]
  },
  {
    "name": "زان",
    "coordinates": [
      35.7556438,
      34.2239721
    ]
  },
  {
    "name": "حربونا",
    "coordinates": [
      35.7465315,
      34.2397009
    ]
  },
  {
    "name": "صورات",
    "coordinates": [
      35.7585068,
      34.2363806
    ]
  },
  {
    "name": "راشكيدا",
    "coordinates": [
      35.7154904,
      34.2637569
    ]
  },
  {
    "name": "كفرحتنا",
    "coordinates": [
      35.7463999,
      34.2310693
    ]
  },
  {
    "name": "عبدللي",
    "coordinates": [
      35.7216443,
      34.2067961
    ]
  },
  {
    "name": "سمار جبيل",
    "coordinates": [
      35.6865622,
      34.2192243
    ]
  },
  {
    "name": "جربتا",
    "coordinates": [
      35.7091096,
      34.2018591
    ]
  },
  {
    "name": "صغار",
    "coordinates": [
      35.695133,
      34.2009771
    ]
  },
  {
    "name": "راشانا",
    "coordinates": [
      35.6739655,
      34.2152032
    ]
  },
  {
    "name": "غوما",
    "coordinates": [
      35.6930424,
      34.2141694
    ]
  },
  {
    "name": "كبَا",
    "coordinates": [
      35.6634637,
      34.2717501
    ]
  },
  {
    "name": "مراح شديد",
    "coordinates": [
      35.6892483,
      34.2258009
    ]
  },
  {
    "name": "هري",
    "coordinates": [
      35.7129971,
      34.3055472
    ]
  },
  {
    "name": "إده",
    "coordinates": [
      35.6916404,
      34.2347742
    ]
  },
  {
    "name": "عبرين",
    "coordinates": [
      35.7057228,
      34.252762
    ]
  },
  {
    "name": "كور",
    "coordinates": [
      35.7365826,
      34.2381032
    ]
  },
  {
    "name": "بجدرفل",
    "coordinates": [
      35.7162106,
      34.2441082
    ]
  },
  {
    "name": "كفر حي",
    "coordinates": [
      35.7431939,
      34.2495544
    ]
  },
  {
    "name": "حدتون",
    "coordinates": [
      35.7985525,
      34.1945971
    ]
  },
  {
    "name": "فتاحات",
    "coordinates": [
      35.7600677,
      34.2309157
    ]
  },
  {
    "name": "علالي",
    "coordinates": [
      35.7726793,
      34.2044457
    ]
  },
  {
    "name": "جران",
    "coordinates": [
      35.7061595,
      34.2238664
    ]
  },
  {
    "name": "كفر شليمان",
    "coordinates": [
      35.7753944,
      34.231797
    ]
  },
  {
    "name": "بقسميا",
    "coordinates": [
      35.7656352,
      34.2511722
    ]
  },
  {
    "name": "مار ماما",
    "coordinates": [
      35.7591353,
      34.1882079
    ]
  },
  {
    "name": "دوق",
    "coordinates": [
      35.7469578,
      34.1956242
    ]
  },
  {
    "name": "شبطين",
    "coordinates": [
      35.7506266,
      34.2114249
    ]
  },
  {
    "name": "دريا",
    "coordinates": [
      35.7247815,
      34.2183664
    ]
  },
  {
    "name": "مسرح",
    "coordinates": [
      35.7396037,
      34.1863082
    ]
  },
  {
    "name": "ضهر ابي ياغي",
    "coordinates": [
      35.7266753,
      34.1900536
    ]
  },
  {
    "name": "الرام",
    "coordinates": [
      35.7990689,
      34.183856
    ]
  },
  {
    "name": "حردين",
    "coordinates": [
      35.857964,
      34.2351368
    ]
  },
  {
    "name": "كفور العربي",
    "coordinates": [
      35.8659391,
      34.2239338
    ]
  },
  {
    "name": "شيخان",
    "coordinates": [
      35.6571242,
      34.1736096
    ]
  },
  {
    "name": "بيت حبّاق",
    "coordinates": [
      35.7068837,
      34.163684
    ]
  },
  {
    "name": "شامات",
    "coordinates": [
      35.6984212,
      34.165669
    ]
  },
  {
    "name": "كفر بعال",
    "coordinates": [
      35.7472011,
      34.1117862
    ]
  },
  {
    "name": "جليسة",
    "coordinates": [
      35.6910188,
      34.1160872
    ]
  },
  {
    "name": "مزرعة السياد",
    "coordinates": [
      35.8612529,
      34.1060843
    ]
  },
  {
    "name": "راموط",
    "coordinates": [
      35.7104546,
      34.1674689
    ]
  },
  {
    "name": "عين كفاع",
    "coordinates": [
      35.695058,
      34.1896389
    ]
  },
  {
    "name": "بنتاعل",
    "coordinates": [
      35.6926866,
      34.1463177
    ]
  },
  {
    "name": "فراط",
    "coordinates": [
      35.7893853,
      34.0876844
    ]
  },
  {
    "name": "هدينة",
    "coordinates": [
      35.8684092,
      34.0915242
    ]
  },
  {
    "name": "بشتليدا",
    "coordinates": [
      35.7234047,
      34.1315836
    ]
  },
  {
    "name": "فغال",
    "coordinates": [
      35.6776677,
      34.2073121
    ]
  },
  {
    "name": "مراح الحباس",
    "coordinates": [
      35.4638452,
      33.5487013
    ]
  },
  {
    "name": "مزرعة الضهر",
    "coordinates": [
      35.515862,
      33.59519
    ]
  },
  {
    "name": "الطيري",
    "coordinates": [
      35.4028739,
      33.1423067
    ]
  },
  {
    "name": "الوردانية",
    "coordinates": [
      35.4344067,
      33.6115733
    ]
  },
  {
    "name": "كفر زينا",
    "coordinates": [
      35.8804492,
      34.3662231
    ]
  },
  {
    "name": "مشحا",
    "coordinates": [
      36.1148277,
      34.5386402
    ]
  },
  {
    "name": "قصير",
    "coordinates": [
      36.2388991,
      34.6058319
    ]
  },
  {
    "name": "رماح",
    "coordinates": [
      36.264037,
      34.6202044
    ]
  },
  {
    "name": "بكا",
    "coordinates": [
      35.9246327,
      33.5925423
    ]
  },
  {
    "name": "عين عرب",
    "coordinates": [
      35.8740852,
      33.5763088
    ]
  },
  {
    "name": "كفر دنيس",
    "coordinates": [
      35.8521475,
      33.5477838
    ]
  },
  {
    "name": "خربة روحا",
    "coordinates": [
      35.8530816,
      33.5725754
    ]
  },
  {
    "name": "الرفيد",
    "coordinates": [
      35.8150814,
      33.5723733
    ]
  },
  {
    "name": "شيحين",
    "coordinates": [
      35.2588714,
      33.1276516
    ]
  },
  {
    "name": "طورا",
    "coordinates": [
      35.2970125,
      33.2932087
    ]
  },
  {
    "name": "معركة",
    "coordinates": [
      35.3104644,
      33.2731662
    ]
  },
  {
    "name": "برج رحال",
    "coordinates": [
      35.2798644,
      33.3109467
    ]
  },
  {
    "name": "دير عامص",
    "coordinates": [
      35.3377646,
      33.1976643
    ]
  },
  {
    "name": "برتي",
    "coordinates": [
      35.4837291,
      33.5203605
    ]
  },
  {
    "name": "جرجوع",
    "coordinates": [
      35.5166044,
      33.4456121
    ]
  },
  {
    "name": "البرجين",
    "coordinates": [
      35.4841866,
      33.657156
    ]
  },
  {
    "name": "بقرزلا",
    "coordinates": [
      36.0561199,
      34.5100508
    ]
  },
  {
    "name": "بتبيات",
    "coordinates": [
      35.7066815,
      33.8343161
    ]
  },
  {
    "name": "دير الحرف",
    "coordinates": [
      35.687326,
      33.8491166
    ]
  },
  {
    "name": "وادي الدلم",
    "coordinates": [
      35.8129429,
      33.7947347
    ]
  },
  {
    "name": "فريديس",
    "coordinates": [
      35.6773782,
      33.7109644
    ]
  },
  {
    "name": "مجدل بعنا",
    "coordinates": [
      35.6716192,
      33.7776188
    ]
  },
  {
    "name": "شاناي",
    "coordinates": [
      35.6595227,
      33.7877069
    ]
  },
  {
    "name": "بزبدين",
    "coordinates": [
      35.7338676,
      33.8708016
    ]
  },
  {
    "name": "دير خونا",
    "coordinates": [
      35.6644878,
      33.8317407
    ]
  },
  {
    "name": "شويت",
    "coordinates": [
      35.6074091,
      33.8298157
    ]
  },
  {
    "name": "القلعة",
    "coordinates": [
      35.7270347,
      33.8416445
    ]
  },
  {
    "name": "الخريبة",
    "coordinates": [
      35.7143169,
      33.8245325
    ]
  },
  {
    "name": "لويزة",
    "coordinates": [
      35.5654397,
      33.8379522
    ]
  },
  {
    "name": "الفياضية",
    "coordinates": [
      35.5507912,
      33.8482671
    ]
  },
  {
    "name": "مرداشة",
    "coordinates": [
      35.5419885,
      33.8230579
    ]
  },
  {
    "name": "دليبة",
    "coordinates": [
      35.6879078,
      33.8792966
    ]
  },
  {
    "name": "بطشاي",
    "coordinates": [
      35.5441136,
      33.8258757
    ]
  },
  {
    "name": "عاريا",
    "coordinates": [
      35.5893126,
      33.8291148
    ]
  },
  {
    "name": "بعلشميه",
    "coordinates": [
      35.6445858,
      33.8153353
    ]
  },
  {
    "name": "عين موفق",
    "coordinates": [
      35.6516954,
      33.822478
    ]
  },
  {
    "name": "الهلالية",
    "coordinates": [
      35.6370184,
      33.8330194
    ]
  },
  {
    "name": "جورة أرصون",
    "coordinates": [
      35.7098604,
      33.8511916
    ]
  },
  {
    "name": "ضهر العقلين",
    "coordinates": [
      35.4736903,
      33.6809756
    ]
  },
  {
    "name": "حميلة",
    "coordinates": [
      35.4676559,
      33.4488759
    ]
  },
  {
    "name": "صربا",
    "coordinates": [
      35.4746137,
      33.4669747
    ]
  },
  {
    "name": "زفتا",
    "coordinates": [
      35.401723,
      33.4455407
    ]
  },
  {
    "name": "بدياس",
    "coordinates": [
      35.3001926,
      33.3123314
    ]
  },
  {
    "name": "أنصار",
    "coordinates": [
      35.3552671,
      33.3795518
    ]
  },
  {
    "name": "القصر",
    "coordinates": [
      36.4404917,
      34.4788613
    ]
  },
  {
    "name": "رمحالا",
    "coordinates": [
      35.5635949,
      33.7418143
    ]
  },
  {
    "name": "عين تراز",
    "coordinates": [
      35.5831262,
      33.7348352
    ]
  },
  {
    "name": "بتلون",
    "coordinates": [
      35.6399894,
      33.7871964
    ]
  },
  {
    "name": "كيفون",
    "coordinates": [
      35.5594447,
      33.7784558
    ]
  },
  {
    "name": "دير قوبل",
    "coordinates": [
      35.5144572,
      33.7936434
    ]
  },
  {
    "name": "بليبل",
    "coordinates": [
      35.5509189,
      33.8084049
    ]
  },
  {
    "name": "حومال",
    "coordinates": [
      35.5581118,
      33.8105057
    ]
  },
  {
    "name": "بخشتيه",
    "coordinates": [
      35.62189,
      33.7974375
    ]
  },
  {
    "name": "سرحمول",
    "coordinates": [
      35.5309374,
      33.7712275
    ]
  },
  {
    "name": "بساتين",
    "coordinates": [
      35.5263996,
      33.7554835
    ]
  },
  {
    "name": "عين كسور",
    "coordinates": [
      35.5334664,
      33.747967
    ]
  },
  {
    "name": "قناة باكيش",
    "coordinates": [
      35.8200002,
      33.9625829
    ]
  },
  {
    "name": "دارين",
    "coordinates": [
      36.1101923,
      34.6049278
    ]
  },
  {
    "name": "سعدين",
    "coordinates": [
      36.0930404,
      34.5969121
    ]
  },
  {
    "name": "سرار",
    "coordinates": [
      36.1324217,
      34.615302
    ]
  },
  {
    "name": "دغلة",
    "coordinates": [
      36.2093983,
      34.5796197
    ]
  },
  {
    "name": "كفر نون",
    "coordinates": [
      36.2534843,
      34.6244585
    ]
  },
  {
    "name": "حرار",
    "coordinates": [
      36.1221802,
      34.4571767
    ]
  },
  {
    "name": "مجدلا",
    "coordinates": [
      36.0367433,
      34.4982436
    ]
  },
  {
    "name": "كرم زبدين",
    "coordinates": [
      36.3576269,
      34.6188466
    ]
  },
  {
    "name": "عيدمون",
    "coordinates": [
      36.2860096,
      34.5986374
    ]
  },
  {
    "name": "القنطرة",
    "coordinates": [
      36.0701179,
      34.5183939
    ]
  },
  {
    "name": "مزرعة بلده",
    "coordinates": [
      36.1433489,
      34.5624019
    ]
  },
  {
    "name": "عدبل",
    "coordinates": [
      36.0966111,
      34.5348503
    ]
  },
  {
    "name": "حيزوق",
    "coordinates": [
      36.1312552,
      34.5492642
    ]
  },
  {
    "name": "نورة التحتا",
    "coordinates": [
      36.185501,
      34.626581
    ]
  },
  {
    "name": "كواشرة",
    "coordinates": [
      36.2056601,
      34.6118886
    ]
  },
  {
    "name": "نورة الفوقا",
    "coordinates": [
      36.185203,
      34.6204272
    ]
  },
  {
    "name": "فريديس",
    "coordinates": [
      36.2284634,
      34.6141906
    ]
  },
  {
    "name": "جديدة القيطع",
    "coordinates": [
      36.0111477,
      34.4645009
    ]
  },
  {
    "name": "مقيطع",
    "coordinates": [
      35.9956759,
      34.5579809
    ]
  },
  {
    "name": "مسعوديه",
    "coordinates": [
      36.0483197,
      34.6054298
    ]
  },
  {
    "name": "تل حميرة",
    "coordinates": [
      36.0721299,
      34.6262502
    ]
  },
  {
    "name": "العبودية",
    "coordinates": [
      36.117732,
      34.6364359
    ]
  },
  {
    "name": "كويخات",
    "coordinates": [
      36.0900638,
      34.5751307
    ]
  },
  {
    "name": "كروم عرب",
    "coordinates": [
      36.092882,
      34.5546819
    ]
  },
  {
    "name": "عرقا",
    "coordinates": [
      36.0371463,
      34.5303889
    ]
  },
  {
    "name": "مار توما",
    "coordinates": [
      36.0277711,
      34.5114251
    ]
  },
  {
    "name": "سيسوق",
    "coordinates": [
      36.0522845,
      34.4895251
    ]
  },
  {
    "name": "برقايل",
    "coordinates": [
      36.0329149,
      34.476767
    ]
  },
  {
    "name": "ريحانيه",
    "coordinates": [
      35.9773985,
      34.4920003
    ]
  },
  {
    "name": "العرمة",
    "coordinates": [
      36.1622004,
      34.6297341
    ]
  },
  {
    "name": "قشلق",
    "coordinates": [
      36.1551,
      34.6175702
    ]
  },
  {
    "name": "جانين",
    "coordinates": [
      36.1475265,
      34.629269
    ]
  },
  {
    "name": "ذوق الحبالصة",
    "coordinates": [
      36.0368212,
      34.5171569
    ]
  },
  {
    "name": "ذوق حدارة",
    "coordinates": [
      36.0301988,
      34.5155221
    ]
  },
  {
    "name": "ذوق المقشرين",
    "coordinates": [
      36.0287111,
      34.519725
    ]
  },
  {
    "name": "هيتلا",
    "coordinates": [
      36.1340208,
      34.601986
    ]
  },
  {
    "name": "دوسة بغدادي",
    "coordinates": [
      36.1875334,
      34.6024968
    ]
  },
  {
    "name": "عماطور",
    "coordinates": [
      35.6083217,
      33.6427692
    ]
  },
  {
    "name": "مرج السماح",
    "coordinates": [
      35.7953668,
      33.5067272
    ]
  },
  {
    "name": "جبال البطم",
    "coordinates": [
      35.291053,
      33.1765919
    ]
  },
  {
    "name": "طير فلسيه",
    "coordinates": [
      35.3459948,
      33.3088321
    ]
  },
  {
    "name": "القليلة",
    "coordinates": [
      35.2294152,
      33.1964091
    ]
  },
  {
    "name": "الحنية",
    "coordinates": [
      35.223133,
      33.186152
    ]
  },
  {
    "name": "باريش",
    "coordinates": [
      35.3506735,
      33.2740228
    ]
  },
  {
    "name": "مجدل زون",
    "coordinates": [
      35.2260287,
      33.1503227
    ]
  },
  {
    "name": "الشهابية",
    "coordinates": [
      35.3830695,
      33.2433333
    ]
  },
  {
    "name": "شبريحا",
    "coordinates": [
      35.2319902,
      33.2921017
    ]
  },
  {
    "name": "أرزون",
    "coordinates": [
      35.3778814,
      33.2805986
    ]
  },
  {
    "name": "المنصوري",
    "coordinates": [
      35.2110878,
      33.1736531
    ]
  },
  {
    "name": "يانوح",
    "coordinates": [
      35.304319,
      33.2596416
    ]
  },
  {
    "name": "سلعا",
    "coordinates": [
      35.3833585,
      33.253834
    ]
  },
  {
    "name": "جويا",
    "coordinates": [
      35.3378121,
      33.2376779
    ]
  },
  {
    "name": "معروب",
    "coordinates": [
      35.3467306,
      33.2843009
    ]
  },
  {
    "name": "عين أبو عبد الله",
    "coordinates": [
      35.2586144,
      33.315624
    ]
  },
  {
    "name": "العباسية",
    "coordinates": [
      35.2830699,
      33.2971048
    ]
  },
  {
    "name": "محرونة",
    "coordinates": [
      35.3426715,
      33.2187125
    ]
  },
  {
    "name": "مزرعة مشرف",
    "coordinates": [
      35.3360583,
      33.209287
    ]
  },
  {
    "name": "البياض",
    "coordinates": [
      35.3265168,
      33.2053492
    ]
  },
  {
    "name": "رشكنانية",
    "coordinates": [
      35.3222825,
      33.1893448
    ]
  },
  {
    "name": "صديقين",
    "coordinates": [
      35.3092076,
      33.1886984
    ]
  },
  {
    "name": "علما الشعب",
    "coordinates": [
      35.1785394,
      33.1040468
    ]
  },
  {
    "name": "عين بعال",
    "coordinates": [
      35.2663966,
      33.2329637
    ]
  },
  {
    "name": "بافلية",
    "coordinates": [
      35.3656431,
      33.2631735
    ]
  },
  {
    "name": "باتوليه",
    "coordinates": [
      35.2573463,
      33.2250197
    ]
  },
  {
    "name": "دردغيا",
    "coordinates": [
      35.3702877,
      33.2801891
    ]
  },
  {
    "name": "دير كيفا",
    "coordinates": [
      35.398605,
      33.2572715
    ]
  },
  {
    "name": "تعلبايا",
    "coordinates": [
      35.8676904,
      33.8172909
    ]
  },
  {
    "name": "حامات",
    "coordinates": [
      35.6921537,
      34.2848097
    ]
  },
  {
    "name": "راس نحاش",
    "coordinates": [
      35.7200257,
      34.2807176
    ]
  },
  {
    "name": "بستان",
    "coordinates": [
      35.2547904,
      33.1009901
    ]
  },
  {
    "name": "الشعيتية",
    "coordinates": [
      35.2648422,
      33.1962704
    ]
  },
  {
    "name": "دير قانون رأس العين",
    "coordinates": [
      35.2434238,
      33.2222248
    ]
  },
  {
    "name": "طير دبا",
    "coordinates": [
      35.277221,
      33.2740834
    ]
  },
  {
    "name": "شحور",
    "coordinates": [
      35.3699452,
      33.2989197
    ]
  },
  {
    "name": "صريفا",
    "coordinates": [
      35.3992192,
      33.2825105
    ]
  },
  {
    "name": "النفاخية",
    "coordinates": [
      35.3865354,
      33.270975
    ]
  },
  {
    "name": "المجادل",
    "coordinates": [
      35.3589702,
      33.2286247
    ]
  },
  {
    "name": "برج الشمالي",
    "coordinates": [
      35.2368296,
      33.2615583
    ]
  },
  {
    "name": "دير قانون النهر",
    "coordinates": [
      35.3112304,
      33.2992997
    ]
  },
  {
    "name": "جناتا",
    "coordinates": [
      35.3202126,
      33.2860677
    ]
  },