[
  {
    "name": "خطّ 31",
    "coordinates": [
      35.5145127,
      33.6302476
    ]
  },
  {
    "name": "خطّ 31",
    "coordinates": [
      35.5168747,
      33.6284251
    ]
  },
  {
    "name": "خطّ 31",
    "coordinates": [
      35.5168275,
      33.628505
    ]
  },
  {
    "name": "فيفا تاكسي",
    "coordinates": [
      35.5197913,
      33.8880541
    ]
  },
  {
    "name": "لبانون تاكسي",
    "coordinates": [
      35.4877506,
      33.8954564
    ]
  },
  {
    "name": "وردية",
    "coordinates": [
      35.4879595,
      33.8962395
    ]
  },
  {
    "name": "مطار وجه الحجر",
    "coordinates": [
      35.6806476,
      34.2826005
    ]
  },
  {
    "name": "محطة شارل حلو للأوتوبيس",
    "coordinates": [
      35.5135888,
      33.8968137
    ]
  },
  {
    "name": "حمراء",
    "coordinates": [
      35.4835614,
      33.8939392
    ]
  },
  {
    "name": "الحمام العسكري",
    "coordinates": [
      35.4702888,
      33.8961254
    ]
  },
  {
    "name": "عين المريسة",
    "coordinates": [
      35.4894443,
      33.9013438
    ]
  },
  {
    "name": "الكولا",
    "coordinates": [
      35.4955919,
      33.8761659
    ]
  },
  {
    "name": "الدورة",
    "coordinates": [
      35.5507403,
      33.8940257
    ]
  },
  {
    "name": "الدورة",
    "coordinates": [
      35.5507158,
      33.8932502
    ]
  },
  {
    "name": "روشة",
    "coordinates": [
      35.471823,
      33.8900781
    ]
  },
  {
    "name": "موقف الناعمة",
    "coordinates": [
      35.455049,
      33.7426816
    ]
  },
  {
    "name": "المتحف الوطني",
    "coordinates": [
      35.5149589,
      33.8786158
    ]
  },
  {
    "name": "محطة قطينة",
    "coordinates": [
      36.631007,
      34.6450848
    ]
  },
  {
    "name": "الدورة",
    "coordinates": [
      35.5498145,
      33.8936029
    ]
  },
  {
    "name": "بحري",
    "coordinates": [
      35.4756889,
      33.9016177
    ]
  },
  {
    "name": "الوردية",
    "coordinates": [
      35.4875298,
      33.8942602
    ]
  },
  {
    "name": "محطة الباص مار مخائيل",
    "coordinates": [
      35.5298479,
      33.89739
    ]
  },
  {
    "name": "إل تي سي صاوي زنتوت",
    "coordinates": [
      35.3753294,
      33.5647111
    ]
  },
  {
    "name": "مارتقلا",
    "coordinates": [
      35.5599941,
      33.8861779
    ]
  },
  {
    "name": "سوديكو",
    "coordinates": [
      35.5084394,
      33.8868263
    ]
  },
  {
    "name": "كراج وموقف سيارات وادي خالد",
    "coordinates": [
      36.346243,
      34.6616582
    ]
  },
  {
    "name": "ساحة شتورا",
    "coordinates": [
      35.8550927,
      33.8146133
    ]
  },
  {
    "name": "محطة حافلات",
    "coordinates": [
      35.2137211,
      33.2744394
    ]
  },
  {
    "name": "جبيل",
    "coordinates": [
      35.6514129,
      34.119497
    ]
  },
  {
    "name": "موقف ابي سمراء",
    "coordinates": [
      35.8564126,
      34.4342168
    ]
  },
  {
    "name": "موقف باصات رقم ٤ و ...",
    "coordinates": [
      35.515606,
      33.829197
    ]
  },
  {
    "name": "موقف باصات حتی حی السلم",
    "coordinates": [
      35.4854237,
      33.8967704
    ]
  },
  {
    "name": "إلی الحارة",
    "coordinates": [
      35.4878145,
      33.8964107
    ]
  },
  {
    "name": "إلی الحارة حريك رقم 12",
    "coordinates": [
      35.4877344,
      33.8901828
    ]
  },
  {
    "name": "موقف الكورة",
    "coordinates": [
      35.8391852,
      34.4354363
    ]
  },
  {
    "name": "كراج تكسي سوريا",
    "coordinates": [
      35.5141458,
      33.8974931
    ]
  },
  {
    "name": "ساحه الموقف الجديد",
    "coordinates": [
      35.5119994,
      33.8279845
    ]
  },
  {
    "name": "ڤانات بيروت",
    "coordinates": [
      35.8371689,
      34.436963
    ]
  },
  {
    "name": "حافلات 12، 24 إلى كولا",
    "coordinates": [
      35.4875847,
      33.8953617
    ]
  },
  {
    "name": "حافلة مباشرة إلى بيروت أو صيدا",
    "coordinates": [
      35.2138667,
      33.2739506
    ]
  },
  {
    "name": "محطة الحافلات إلى صيدا",
    "coordinates": [
      35.198176,
      33.2722357
    ]
  },
  {
    "name": "فان #٤ نحو الليلكي",
    "coordinates": [
      35.5062298,
      33.8920037
    ]
  },
  {
    "name": "فان #٤ نحو الليلكي",
    "coordinates": [
      35.5075986,
      33.8763452
    ]
  },
  {
    "name": "محطة الجبلي فانات بيروت",
    "coordinates": [
      36.1797156,
      33.9954548
    ]
  },
  {
    "name": "موقف باصات بشامون سوق الغرب",
    "coordinates": [
      35.4950682,
      33.8784818
    ]
  }
]