[
  {
    "name": "الخازن",
    "coordinates": [
      35.5156286,
      33.629839
    ]
  },
  {
    "name": "السوق",
    "coordinates": [
      35.5145083,
      33.6303825
    ]
  },
  {
    "name": "الحاووظ",
    "coordinates": [
      35.5181761,
      33.630322
    ]
  },
  {
    "name": "فرنسابنك",
    "coordinates": [
      35.4891106,
      33.6174649
    ]
  },
  {
    "name": "قسما و دميانوس",
    "coordinates": [
      35.8088678,
      34.3319081
    ]
  },
  {
    "name": "سرحان",
    "coordinates": [
      35.8088535,
      34.3322343
    ]
  },
  {
    "name": "ميني ماركت ملكي",
    "coordinates": [
      35.809626,
      34.3308451
    ]
  },
  {
    "name": "القديسة تيريز",
    "coordinates": [
      35.8148265,
      34.3003697
    ]
  },
  {
    "name": "لبنان و المهجر",
    "coordinates": [
      35.5052639,
      33.8774897
    ]
  },
  {
    "name": "سلوى",
    "coordinates": [
      35.5055167,
      33.877537
    ]
  },
  {
    "name": "أرز الباروك",
    "coordinates": [
      35.6754973,
      33.662196
    ]
  },
  {
    "name": "ماكدونالدز",
    "coordinates": [
      35.6182757,
      33.9784733
    ]
  },
  {
    "name": "لو جورج",
    "coordinates": [
      35.5095215,
      33.8947447
    ]
  },
  {
    "name": "جنة الطلبة",
    "coordinates": [
      35.5049253,
      33.8748945
    ]
  },
  {
    "name": "منارة بيروت",
    "coordinates": [
      35.4698382,
      33.9000392
    ]
  },
  {
    "name": "ليبان بوست",
    "coordinates": [
      35.5144482,
      33.6305256
    ]
  },
  {
    "name": "أليسار",
    "coordinates": [
      35.5139198,
      33.6316203
    ]
  },
  {
    "name": "شاركوتيري عون",
    "coordinates": [
      35.6021299,
      33.9155588
    ]
  },
  {
    "name": "مدرسة عمرحمد",
    "coordinates": [
      35.501846,
      33.870179
    ]
  },
  {
    "name": "مستشفى الإقليم المركزي",
    "coordinates": [
      35.4721675,
      33.6139536
    ]
  },
  {
    "name": "الصليب الأحمر اللبناني",
    "coordinates": [
      35.813454,
      34.3052327
    ]
  },
  {
    "name": "ملك الطاووق أشرفية",
    "coordinates": [
      35.5205272,
      33.8883872
    ]
  },
  {
    "name": "المكتبة الشرقية",
    "coordinates": [
      35.5184358,
      33.8881476
    ]
  },
  {
    "name": "مخفر بيضون",
    "coordinates": [
      35.5152308,
      33.8878102
    ]
  },
  {
    "name": "بابا سمير",
    "coordinates": [
      35.5185402,
      33.8881572
    ]
  },
  {
    "name": "البربير - سابقاً",
    "coordinates": [
      35.5054826,
      33.8779579
    ]
  },
  {
    "name": "لبنان للتجارة",
    "coordinates": [
      35.503857,
      33.8779857
    ]
  },
  {
    "name": "ت س ث بلوس",
    "coordinates": [
      35.51744,
      33.8881451
    ]
  },
  {
    "name": "مكتبة سطيفان",
    "coordinates": [
      35.5174193,
      33.8884307
    ]
  },
  {
    "name": "فرنسابنك",
    "coordinates": [
      35.5147351,
      33.8876543
    ]
  },
  {
    "name": "زعتر و زيت",
    "coordinates": [
      35.510943,
      33.886705
    ]
  },
  {
    "name": "دكتور شولز",
    "coordinates": [
      35.517908,
      33.8882009
    ]
  },
  {
    "name": "أوبتيك روبير دكواس",
    "coordinates": [
      35.5191027,
      33.8874665
    ]
  },
  {
    "name": "السبيل",
    "coordinates": [
      35.5030415,
      33.872846
    ]
  },
  {
    "name": "عودي",
    "coordinates": [
      35.520582,
      33.8881437
    ]
  },
  {
    "name": "فرن مانيوليا",
    "coordinates": [
      35.5201154,
      33.8881046
    ]
  },
  {
    "name": "فلافل فريحا",
    "coordinates": [
      35.5198987,
      33.8879011
    ]
  },
  {
    "name": "دوري سناك",
    "coordinates": [
      35.5196989,
      33.8879612
    ]
  },
  {
    "name": "ايشتي",
    "coordinates": [
      35.5195283,
      33.8882011
    ]
  },
  {
    "name": "نصب بشير جميل التذكاري",
    "coordinates": [
      35.5211014,
      33.8872862
    ]
  },
  {
    "name": "روت سبايس",
    "coordinates": [
      35.5113148,
      33.8974586
    ]
  },
  {
    "name": "لو رولي دو لانتروكوت",
    "coordinates": [
      35.5085198,
      33.8881144
    ]
  },
  {
    "name": "سيركوي امبير سوديكو",
    "coordinates": [
      35.5092555,
      33.8860461
    ]
  },
  {
    "name": "غراند ا ب ث",
    "coordinates": [
      35.5201779,
      33.8890479
    ]
  },
  {
    "name": "لا بيازا",
    "coordinates": [
      35.5077788,
      33.8876645
    ]
  },
  {
    "name": "لو برتيكوليي",
    "coordinates": [
      35.5078424,
      33.8866501
    ]
  },
  {
    "name": "كاسّينو",
    "coordinates": [
      35.5081872,
      33.8866479
    ]
  },
  {
    "name": "ليل نهار",
    "coordinates": [
      35.5212236,
      33.8918848
    ]
  },
  {
    "name": "يسايان",
    "coordinates": [
      35.5201772,
      33.8869253
    ]
  },
  {
    "name": "سوسيته جنرال",
    "coordinates": [
      35.5200334,
      33.8872289
    ]
  },
  {
    "name": "زعتر وزيت",
    "coordinates": [
      35.4843036,
      33.8990398
    ]
  },
  {
    "name": "الطوارئ",
    "coordinates": [
      35.5037291,
      33.8748522
    ]
  },
  {
    "name": "بي و نينا",
    "coordinates": [
      35.6942612,
      33.9139584
    ]
  },
  {
    "name": "امبراطورية اللحم بعجين",
    "coordinates": [
      35.7936205,
      34.0136974
    ]
  },
  {
    "name": "يسوع الملك",
    "coordinates": [
      35.6046361,
      33.956938
    ]
  },
  {
    "name": "هندي",
    "coordinates": [
      35.6066359,
      33.9601273
    ]
  },
  {
    "name": "برج الحمام",
    "coordinates": [
      35.5859964,
      33.9206979
    ]
  },
  {
    "name": "فرن يمين",
    "coordinates": [
      35.5997952,
      33.9153583
    ]
  },
  {
    "name": "سنتر روكلاند",
    "coordinates": [
      35.6236505,
      33.9250349
    ]
  },
  {
    "name": "اللبناني الكندي",
    "coordinates": [
      35.6321392,
      33.9256403
    ]
  },
  {
    "name": "عمر الأنسي",
    "coordinates": [
      35.5020792,
      33.8958095
    ]
  },
  {
    "name": "دلاعة",
    "coordinates": [
      35.3774701,
      33.5571549
    ]
  },
  {
    "name": "المستشفى الفرنسي سيدة لورد",
    "coordinates": [
      35.5177863,
      33.8699439
    ]
  },
  {
    "name": "بيضون",
    "coordinates": [
      35.4889824,
      33.8936544
    ]
  },
  {
    "name": "ماكدونالدز",
    "coordinates": [
      35.217967,
      33.2563185
    ]
  },
  {
    "name": "أسد سان ماركو",
    "coordinates": [
      35.504926,
      33.8967927
    ]
  },
  {
    "name": "طيران الشرق الآوسط",
    "coordinates": [
      35.4875633,
      33.8983027
    ]
  },
  {
    "name": "أفريبودي تلرافل أجنسي",
    "coordinates": [
      35.4870332,
      33.897603
    ]
  },
  {
    "name": "كبابجي",
    "coordinates": [
      35.4860345,
      33.8954297
    ]
  },
  {
    "name": "مسرح المدينة",
    "coordinates": [
      35.4859425,
      33.8954533
    ]
  },
  {
    "name": "جيلار",
    "coordinates": [
      35.4858392,
      33.8954463
    ]
  },
  {
    "name": "روسّا كافيه",
    "coordinates": [
      35.484735,
      33.8952284
    ]
  },
  {
    "name": "بلعة",
    "coordinates": [
      35.4850609,
      33.8961841
    ]
  },
  {
    "name": "سليب كونفور",
    "coordinates": [
      35.4874187,
      33.8963962
    ]
  },
  {
    "name": "خباز",
    "coordinates": [
      35.486775,
      33.8965601
    ]
  },
  {
    "name": "وردية حمرا",
    "coordinates": [
      35.4870599,
      33.8964825
    ]
  },
  {
    "name": "بنك إنتركونتيننتال لبنان",
    "coordinates": [
      35.4866394,
      33.896511
    ]
  },
  {
    "name": "فرست ناشونال بنك",
    "coordinates": [
      35.4865459,
      33.8954175
    ]
  },
  {
    "name": "نجار",
    "coordinates": [
      35.4867586,
      33.8967783
    ]
  },
  {
    "name": "إنترديزاين",
    "coordinates": [
      35.4882599,
      33.8964675
    ]
  },
  {
    "name": "فرنسبنك",
    "coordinates": [
      35.4874466,
      33.8951796
    ]
  },
  {
    "name": "أديداس",
    "coordinates": [
      35.4850008,
      33.8959918
    ]
  },
  {
    "name": "كاميل",
    "coordinates": [
      35.4867493,
      33.8964817
    ]
  },
  {
    "name": "بنك كويت",
    "coordinates": [
      35.4831157,
      33.896207
    ]
  },
  {
    "name": "كافي دو براغ",
    "coordinates": [
      35.4835078,
      33.8961346
    ]
  },
  {
    "name": "ستاربكس",
    "coordinates": [
      35.4830661,
      33.8956032
    ]
  },
  {
    "name": "فندق مون لايت",
    "coordinates": [
      35.4825696,
      33.8958839
    ]
  },
  {
    "name": "المحكمة العسكرية",
    "coordinates": [
      35.5256309,
      33.8802948
    ]
  },
  {
    "name": "مخفر طريق الجديدة",
    "coordinates": [
      35.5011479,
      33.8709131
    ]
  },
  {
    "name": "مشموشي",
    "coordinates": [
      35.5005104,
      33.8713104
    ]
  },
  {
    "name": "بيروت",
    "coordinates": [
      35.4995749,
      33.8718663
    ]
  },
  {
    "name": "المحكمة الإسلامية العليا",
    "coordinates": [
      35.5005683,
      33.8716984
    ]
  },
  {
    "name": "ماما نجاح",
    "coordinates": [
      35.5015489,
      33.871681
    ]
  },
  {
    "name": "المنى",
    "coordinates": [
      35.5035402,
      33.8732133
    ]
  },
  {
    "name": "بنك عودة",
    "coordinates": [
      35.5046552,
      33.8727125
    ]
  },
  {
    "name": "صيدلية العتر",
    "coordinates": [
      35.5045015,
      33.8718592
    ]
  },
  {
    "name": "روضة الصنوبر",
    "coordinates": [
      35.5060036,
      33.8720587
    ]
  },
  {
    "name": "صيدلية علا زكريا",
    "coordinates": [
      35.506922,
      33.8714387
    ]
  },
  {
    "name": "المجذوب",
    "coordinates": [
      35.5031111,
      33.8713603
    ]
  },
  {
    "name": "تعاونية صبرا",
    "coordinates": [
      35.5031266,
      33.8699325
    ]
  },
  {
    "name": "باسم",
    "coordinates": [
      35.5004074,
      33.8728783
    ]
  },
  {
    "name": "لبنان و المهجر",
    "coordinates": [
      35.4990084,
      33.8721514
    ]
  },
  {
    "name": "اللبناني الكندي",
    "coordinates": [
      35.4987251,
      33.8724934
    ]
  },
  {
    "name": "لبنان و الخليج",
    "coordinates": [
      35.4986393,
      33.8725433
    ]
  },
  {
    "name": "منيمنة",
    "coordinates": [
      35.4974205,
      33.8736693
    ]
  },
  {
    "name": "البركة",
    "coordinates": [
      35.4966824,
      33.874161
    ]
  },
  {
    "name": "سيف الدين",
    "coordinates": [
      35.4964335,
      33.8739329
    ]
  },
  {
    "name": "فوج إطفاء بيروت",
    "coordinates": [
      35.4982359,
      33.8754651
    ]
  },
  {
    "name": "صيدلية قاروط",
    "coordinates": [
      35.4974978,
      33.875686
    ]
  },
  {
    "name": "اللبان",
    "coordinates": [
      35.4997122,
      33.8756717
    ]
  },
  {
    "name": "محيدلة",
    "coordinates": [
      35.5010683,
      33.8747026
    ]
  },
  {
    "name": "حنيني",
    "coordinates": [
      35.5000326,
      33.8736312
    ]
  },
  {
    "name": "بيت الأطفال",
    "coordinates": [
      35.4978497,
      33.8765625
    ]
  },
  {
    "name": "برينس",
    "coordinates": [
      35.4983217,
      33.8761492
    ]
  },
  {
    "name": "المملوك",
    "coordinates": [
      35.5032054,
      33.8776884
    ]
  },
  {
    "name": "البحر المتوسط",
    "coordinates": [
      35.5035488,
      33.8779804
    ]
  },
  {
    "name": "السعودي اللبناني",
    "coordinates": [
      35.5034029,
      33.8779734
    ]
  },
  {
    "name": "هنادي",
    "coordinates": [
      35.5042956,
      33.8782086
    ]
  },
  {
    "name": "خليفة",
    "coordinates": [
      35.5031883,
      33.8780374
    ]
  },
  {
    "name": "أبو أحمد",
    "coordinates": [
      35.5028193,
      33.8780946
    ]
  },
  {
    "name": "عبد طحان",
    "coordinates": [
      35.5026304,
      33.8781159
    ]
  },
  {
    "name": "صيدلية عيتاني",
    "coordinates": [
      35.5017721,
      33.8782442
    ]
  },
  {
    "name": "لبنان و المهجر",
    "coordinates": [
      35.5009396,
      33.8783653
    ]
  },
  {
    "name": "البنك العربي",
    "coordinates": [
      35.5011971,
      33.8783297
    ]
  },
  {
    "name": "دعبول",
    "coordinates": [
      35.5057718,
      33.8768189
    ]
  },
  {
    "name": "كنفاني",
    "coordinates": [
      35.505686,
      33.8750304
    ]
  },
  {
    "name": "سيف الدين",
    "coordinates": [
      35.5037806,
      33.8744389
    ]
  },
  {
    "name": "الهلال",
    "coordinates": [
      35.505171,
      33.8785791
    ]
  },
  {
    "name": "سنو",
    "coordinates": [
      35.5029652,
      33.8794128
    ]
  },
  {
    "name": "صيدلية طربيه",
    "coordinates": [
      35.5029738,
      33.8790209
    ]
  },
  {
    "name": "الديوان",
    "coordinates": [
      35.5045101,
      33.8805743
    ]
  },
  {
    "name": "مومنية",
    "coordinates": [
      35.5058319,
      33.880781
    ]
  },
  {
    "name": "فرماسيتي",
    "coordinates": [
      35.5070851,
      33.8792703
    ]
  },
  {
    "name": "تويستر",
    "coordinates": [
      35.5070936,
      33.8793986
    ]
  },
  {
    "name": "فلافل العكاوي",
    "coordinates": [
      35.5053084,
      33.8799116
    ]
  },
  {
    "name": "شميطلي",
    "coordinates": [
      35.5046646,
      33.8801753
    ]
  },
  {
    "name": "مصر و لبنان",
    "coordinates": [
      35.5041582,
      33.8811087
    ]
  },
  {
    "name": "ليبان بوست",
    "coordinates": [
      35.5052236,
      33.8812832
    ]
  },
  {
    "name": "حيدر و حجار",
    "coordinates": [
      35.5042193,
      33.8819958
    ]
  },
  {
    "name": "عودي",
    "coordinates": [
      35.5040133,
      33.8816467
    ]
  },
  {
    "name": "النبي داوود",
    "coordinates": [
      35.3816641,
      33.5287708
    ]
  },
  {
    "name": "القصور",
    "coordinates": [
      35.9336111,
      33.7322222
    ]
  },
  {
    "name": "مار نهرا",
    "coordinates": [
      35.6761934,
      34.0348978
    ]
  },
  {
    "name": "مطحنة عدوي",
    "coordinates": [
      35.9888889,
      34.4477778
    ]
  },
  {
    "name": "عين الجرن",
    "coordinates": [
      35.9722222,
      34.4547222
    ]
  },
  {
    "name": "قصر البنات",
    "coordinates": [
      36.15,
      33.85
    ]
  },
  {
    "name": "قصر شبيب",
    "coordinates": [
      35.85,
      33.4166667
    ]
  },
  {
    "name": "دبوسية",
    "coordinates": [
      36.1166667,
      34.6333333
    ]
  },
  {
    "name": "خربة جوسية",
    "coordinates": [
      36.5666667,
      34.4
    ]
  },
  {
    "name": "مطعم منير",
    "coordinates": [
      35.6091827,
      33.8742515
    ]
  },
  {
    "name": "عمر بن الخطاب",
    "coordinates": [
      35.5003789,
      33.8719975
    ]
  },
  {
    "name": "ليسه باسكال",
    "coordinates": [
      35.516782,
      33.6220051
    ]
  },
  {
    "name": "ماك دونالدز",
    "coordinates": [
      35.8473277,
      33.8181124
    ]
  },
  {
    "name": "بريد ريبوبليك",
    "coordinates": [
      35.4820001,
      33.8957681
    ]
  },
  {
    "name": "بلو إيليفنت",
    "coordinates": [
      35.4721815,
      33.8930547
    ]
  },
  {
    "name": "كونكورد",
    "coordinates": [
      35.4862717,
      33.8928145
    ]
  },
  {
    "name": "كو أوب",
    "coordinates": [
      35.4761743,
      33.8958494
    ]
  },
  {
    "name": "مطعم الشمس",
    "coordinates": [
      35.9272457,
      33.7293791
    ]
  },
  {
    "name": "ديونيزوس",
    "coordinates": [
      35.7466145,
      33.6575854
    ]
  },
  {
    "name": "غزالة سوبرستور",
    "coordinates": [
      35.8443005,
      33.8182608
    ]
  },
  {
    "name": "دنكن دونت - Dunkin' Donuts",
    "coordinates": [
      35.9040387,
      33.8453627
    ]
  },
  {
    "name": "بيبلوس",
    "coordinates": [
      35.9059392,
      33.8444258
    ]
  },
  {
    "name": "حلويات البحر - Sea Sweet",
    "coordinates": [
      35.9037861,
      33.8454939
    ]
  },
  {
    "name": "أولد أربسك كافي",
    "coordinates": [
      35.8977321,
      33.8487269
    ]
  },
  {
    "name": "كونكورد",
    "coordinates": [
      35.4750407,
      33.8981042
    ]
  },
  {
    "name": "ثانوية خالد بن الوليد - المقاصد",
    "coordinates": [
      35.5071334,
      33.876474
    ]
  },
  {
    "name": "ثانوية المقاصد الحرش",
    "coordinates": [
      35.5062751,
      33.8778368
    ]
  },
  {
    "name": "ليبان بوست",
    "coordinates": [
      35.4748043,
      33.891254
    ]
  },
  {
    "name": "مستشفى الجامعة الأمريكية",
    "coordinates": [
      35.4849331,
      33.8985594
    ]
  },
  {
    "name": "دانكن دونتس",
    "coordinates": [
      35.4819986,
      33.8993573
    ]
  },
  {
    "name": "الشرق الحمرا",
    "coordinates": [
      35.4841719,
      33.898389
    ]
  },
  {
    "name": "ماكدونالدز",
    "coordinates": [
      35.4822951,
      33.8993329
    ]
  },
  {
    "name": "فلوكة",
    "coordinates": [
      35.4681272,
      33.8932868
    ]
  },
  {
    "name": "دك كافيه",
    "coordinates": [
      35.4679482,
      33.8933189
    ]
  },
  {
    "name": "مطعم ريمون",
    "coordinates": [
      36.005397,
      33.8596479
    ]
  },
  {
    "name": "مدرسة اليسوعية",
    "coordinates": [
      36.0036164,
      33.8566485
    ]
  },
  {
    "name": "منارة صيدا",
    "coordinates": [
      35.3675419,
      33.5717819
    ]
  },
  {
    "name": "منارة صور",
    "coordinates": [
      35.1932384,
      33.2761542
    ]
  },
  {
    "name": "دانكن دونتس",
    "coordinates": [
      35.8442529,
      33.8181977
    ]
  },
  {
    "name": "ساكيه",
    "coordinates": [
      35.5092339,
      33.8879977
    ]
  },
  {
    "name": "بريد ريبوبليك",
    "coordinates": [
      35.5136742,
      33.8900328
    ]
  },
  {
    "name": "آلدينتيه",
    "coordinates": [
      35.5102246,
      33.8880378
    ]
  },
  {
    "name": "كاسبر أند غامبينيز",
    "coordinates": [
      35.5191099,
      33.8890402
    ]
  },
  {
    "name": "بولز بيكري",
    "coordinates": [
      35.5194318,
      33.8887641
    ]
  },
  {
    "name": "ستاربكس",
    "coordinates": [
      35.5195498,
      33.8885152
    ]
  },
  {
    "name": "البلدية",
    "coordinates": [
      35.8382929,
      34.437332
    ]
  },
  {
    "name": "اطفائية طرابلس",
    "coordinates": [
      35.839376,
      34.4382675
    ]
  },
  {
    "name": "الملعب البلدي",
    "coordinates": [
      35.8366537,
      34.4449773
    ]
  },
  {
    "name": "الآباء الكرمليين",
    "coordinates": [
      35.8424396,
      34.4375222
    ]
  },
  {
    "name": "جميزة",
    "coordinates": [
      35.513246,
      33.895042
    ]
  },
  {
    "name": "عيون السمك",
    "coordinates": [
      36.0216661,
      34.4394928
    ]
  },
  {
    "name": "كووب ماركت",
    "coordinates": [
      35.4801749,
      33.8964985
    ]
  },
  {
    "name": "عبدالرحمان الحلاب",
    "coordinates": [
      35.8336931,
      34.4374808
    ]
  },
  {
    "name": "عبدالرحمان الحلاب",
    "coordinates": [
      35.8336931,
      34.4374808
    ]
  },
  {
    "name": "أوتيل ماربل تاور",
    "coordinates": [
      35.4802065,
      33.8966863
    ]
  },
  {
    "name": "آلت سيتي",
    "coordinates": [
      35.4867883,
      33.8951847
    ]
  },
  {
    "name": "تربل شمالا",
    "coordinates": [
      35.9249884,
      34.445852
    ]
  },
  {
    "name": "موفي ماكس",
    "coordinates": [
      35.5193635,
      33.8877804
    ]
  },
  {
    "name": "أنترناسيونال سكول",
    "coordinates": [
      35.8048495,
      34.3541348
    ]
  },
  {
    "name": "سيدة المنطرة",
    "coordinates": [
      35.3799825,
      33.528158
    ]
  },
  {
    "name": "عودي",
    "coordinates": [
      35.5172554,
      33.8920617
    ]
  },
  {
    "name": "المدرسة الرسمية",
    "coordinates": [
      35.4537226,
      33.7497515
    ]
  },
  {
    "name": "ودن بيكري",
    "coordinates": [
      35.5882905,
      33.8803877
    ]
  },
  {
    "name": "مخفر شرطة البلدية",
    "coordinates": [
      35.4533408,
      33.7484538
    ]
  },
  {
    "name": "الفارس",
    "coordinates": [
      35.4546138,
      33.7448031
    ]
  },
  {
    "name": "كورنر ماركت",
    "coordinates": [
      35.5507973,
      33.8755737
    ]
  },
  {
    "name": "سرايا أميون",
    "coordinates": [
      35.8183618,
      34.3011832
    ]
  },
  {
    "name": "مخفر أميون",
    "coordinates": [
      35.8180209,
      34.3012988
    ]
  },
  {
    "name": "القديسة تيريز",
    "coordinates": [
      35.8006324,
      34.2761062
    ]
  },
  {
    "name": "دار بعشتار",
    "coordinates": [
      35.7905259,
      34.2689646
    ]
  },
  {
    "name": "إلياس",
    "coordinates": [
      35.7933154,
      34.2701128
    ]
  },
  {
    "name": "ملحم",
    "coordinates": [
      35.7933475,
      34.2701704
    ]
  },
  {
    "name": "يوسف طوبيا",
    "coordinates": [
      35.79331,
      34.2706315
    ]
  },
  {
    "name": "كلوديت",
    "coordinates": [
      35.7926663,
      34.2708753
    ]
  },
  {
    "name": "أميل",
    "coordinates": [
      35.7928111,
      34.2686233
    ]
  },
  {
    "name": "مطانيوس",
    "coordinates": [
      35.7926448,
      34.2686543
    ]
  },
  {
    "name": "جوان",
    "coordinates": [
      35.7937874,
      34.2714383
    ]
  },
  {
    "name": "نجيب",
    "coordinates": [
      35.7932832,
      34.2708088
    ]
  },
  {
    "name": "بي ال في دي",
    "coordinates": [
      35.8980169,
      33.8494001
    ]
  },
  {
    "name": "سوشي لاونج",
    "coordinates": [
      35.5086726,
      33.8927708
    ]
  },
  {
    "name": "بنك الموارد",
    "coordinates": [
      35.4956922,
      33.8763444
    ]
  },
  {
    "name": "العنتبلي",
    "coordinates": [
      35.5040029,
      33.8746128
    ]
  },
  {
    "name": "عصير العقاد",
    "coordinates": [
      35.5040346,
      33.8742175
    ]
  },
  {
    "name": "مطعم الكبي",
    "coordinates": [
      35.5006742,
      33.8719888
    ]
  },
  {
    "name": "مكتبة الجميع",
    "coordinates": [
      35.5036031,
      33.8733972
    ]
  },
  {
    "name": "أفران لبنان الأخضر",
    "coordinates": [
      35.8287676,
      34.4472633
    ]
  },
  {
    "name": "بان دور",
    "coordinates": [
      35.8293154,
      34.4404073
    ]
  },
  {
    "name": "الشاطر حسن",
    "coordinates": [
      35.8315204,
      34.4417257
    ]
  },
  {
    "name": "دجنجرز",
    "coordinates": [
      35.8260916,
      34.4427565
    ]
  },
  {
    "name": "برانش",
    "coordinates": [
      35.8262204,
      34.4426569
    ]
  },
  {
    "name": "رفعت الحلاب",
    "coordinates": [
      35.8355061,
      34.4354212
    ]
  },
  {
    "name": "بوظة هدلا",
    "coordinates": [
      35.8162812,
      34.4518459
    ]
  },
  {
    "name": "سبينيس",
    "coordinates": [
      35.8246444,
      34.4252298
    ]
  },
  {
    "name": "روضة الفيحاء",
    "coordinates": [
      35.8262108,
      34.4255218
    ]
  },
  {
    "name": "المقساسي",
    "coordinates": [
      35.8186443,
      34.4483335
    ]
  },
  {
    "name": "بلدية الميناء",
    "coordinates": [
      35.8141838,
      34.4533852
    ]
  },
  {
    "name": "البركة",
    "coordinates": [
      35.8226434,
      34.4454271
    ]
  },
  {
    "name": "مستشفى النيني",
    "coordinates": [
      35.830454,
      34.4354153
    ]
  },
  {
    "name": "أفران شمسين",
    "coordinates": [
      35.4716779,
      33.7765746
    ]
  },
  {
    "name": "كو أوب",
    "coordinates": [
      35.4752249,
      33.7824624
    ]
  },
  {
    "name": "بنك البحر المتوسط",
    "coordinates": [
      35.482986,
      33.79647
    ]
  },
  {
    "name": "بنك عودي",
    "coordinates": [
      35.4822671,
      33.7929035
    ]
  },
  {
    "name": "بلدية الدبية",
    "coordinates": [
      35.4889622,
      33.6649877
    ]
  },
  {
    "name": "الدفاع المدني",
    "coordinates": [
      35.4892733,
      33.666899
    ]
  },
  {
    "name": "الخضار سوق",
    "coordinates": [
      35.3701183,
      33.5490315
    ]
  },
  {
    "name": "صيدا سراي",
    "coordinates": [
      35.3774783,
      33.5536895
    ]
  },
  {
    "name": "أبو عبد قهوة",
    "coordinates": [
      35.3709157,
      33.5654713
    ]
  },
  {
    "name": "محطة إطفاء حريق",
    "coordinates": [
      35.3754903,
      33.566515
    ]
  },
  {
    "name": "دجاج حرقوس",
    "coordinates": [
      35.4740454,
      33.7803204
    ]
  },
  {
    "name": "بيتزا هت",
    "coordinates": [
      35.4738882,
      33.7801196
    ]
  },
  {
    "name": "الهدى صيدلية",
    "coordinates": [
      35.4276585,
      33.6889177
    ]
  },
  {
    "name": "الثقافة قصر مدرسة",
    "coordinates": [
      36.399691,
      34.2674424
    ]
  },
  {
    "name": "مستوصف الحريري",
    "coordinates": [
      36.4077913,
      34.1905879
    ]
  },
  {
    "name": "اللبوة مخفر",
    "coordinates": [
      36.3512074,
      34.1951049
    ]
  },
  {
    "name": "اللبوة نفوس",
    "coordinates": [
      36.349759,
      34.194466
    ]
  },
  {
    "name": "مدرسة المختار",
    "coordinates": [
      36.4168679,
      34.1825648
    ]
  },
  {
    "name": "المحكمة الشرعية",
    "coordinates": [
      36.416995,
      34.1842219
    ]
  },
  {
    "name": "سوبرماركت زعرور",
    "coordinates": [
      36.4188527,
      34.1788548
    ]
  },
  {
    "name": "المهنية",
    "coordinates": [
      36.4024483,
      34.1955575
    ]
  },
  {
    "name": "الرسمية الثانوية",
    "coordinates": [
      36.424303,
      34.1697743
    ]
  },
  {
    "name": "مدرسة المعارف",
    "coordinates": [
      36.4179408,
      34.1804258
    ]
  },
  {
    "name": "مرينوس",
    "coordinates": [
      35.6404448,
      34.1312867
    ]
  },
  {
    "name": "باب الميناء",
    "coordinates": [
      35.6439216,
      34.1218287
    ]
  },
  {
    "name": "بودو بار",
    "coordinates": [
      35.4822176,
      33.8959443
    ]
  },
  {
    "name": "ذي بلايند بيغ",
    "coordinates": [
      35.4824066,
      33.8958214
    ]
  },
  {
    "name": "كرو",
    "coordinates": [
      35.4819504,
      33.8963103
    ]
  },
  {
    "name": "كي أف سي",
    "coordinates": [
      35.4787371,
      33.7874441
    ]
  },
  {
    "name": "هارديز",
    "coordinates": [
      35.4786405,
      33.7873104
    ]
  },
  {
    "name": "دار الأزرق",
    "coordinates": [
      35.6420307,
      34.1227294
    ]
  },
  {
    "name": "القرية البيئية",
    "coordinates": [
      35.5045585,
      33.7020285
    ]
  },
  {
    "name": "مغسل الطحش للسيارات",
    "coordinates": [
      35.4500533,
      33.6444341
    ]
  },
  {
    "name": "ثانوية الإيمان النموذجية",
    "coordinates": [
      35.4405797,
      33.6444209
    ]
  },
  {
    "name": "ثانوية برجا الرسمية",
    "coordinates": [
      35.4405422,
      33.642161
    ]
  },
  {
    "name": "متوسطة الديماس المختلطة",
    "coordinates": [
      35.440172,
      33.6447827
    ]
  },
  {
    "name": "صيدلية الشمعة",
    "coordinates": [
      35.4482836,
      33.6442449
    ]
  },
  {
    "name": "العقاد",
    "coordinates": [
      35.4363231,
      33.6425106
    ]
  },
  {
    "name": "مكتبة برجا العامة",
    "coordinates": [
      35.4405935,
      33.651867
    ]
  },
  {
    "name": "فرن هاجر",
    "coordinates": [
      35.4438629,
      33.6505164
    ]
  },
  {
    "name": "صيدلية يونس",
    "coordinates": [
      35.4514018,
      33.6471973
    ]
  },
  {
    "name": "صيدلية شاهين",
    "coordinates": [
      35.4393186,
      33.6447125
    ]
  },
  {
    "name": "صيدلية وسام",
    "coordinates": [
      35.4417576,
      33.6442286
    ]
  },
  {
    "name": "جبانة برجا الفوقا",
    "coordinates": [
      35.44116,
      33.6513467
    ]
  },
  {
    "name": "مدافن الشهداء",
    "coordinates": [
      35.505604,
      33.868016
    ]
  },
  {
    "name": "أمباسي هوتيل",
    "coordinates": [
      35.4814967,
      33.8965982
    ]
  },
  {
    "name": "كورال سويتس الحمرا",
    "coordinates": [
      35.4796908,
      33.8950779
    ]
  },
  {
    "name": "تمثال الشهداء",
    "coordinates": [
      35.5071533,
      33.8963807
    ]
  },
  {
    "name": "فاخيتا",
    "coordinates": [
      35.8303451,
      34.4383156
    ]
  },
  {
    "name": "ابو خليل",
    "coordinates": [
      35.8289196,
      34.4180148
    ]
  },
  {
    "name": "ملحمة السيدة",
    "coordinates": [
      36.0110058,
      34.2507014
    ]
  },
  {
    "name": "فود 101",
    "coordinates": [
      35.4835241,
      33.8991247
    ]
  },
  {
    "name": "كافي بلا دور",
    "coordinates": [
      35.4814541,
      33.8968815
    ]
  },
  {
    "name": "موستاش",
    "coordinates": [
      35.4809482,
      33.8963646
    ]
  },
  {
    "name": "موستاش",
    "coordinates": [
      35.4807968,
      33.8966051
    ]
  },
  {
    "name": "كلاش إن فاشيون",
    "coordinates": [
      35.4791664,
      33.8966374
    ]
  },
  {
    "name": "أنطوري ماركت",
    "coordinates": [
      35.4792284,
      33.8967774
    ]
  },
  {
    "name": "رابيت هول باب",
    "coordinates": [
      35.4785739,
      33.8966805
    ]
  },
  {
    "name": "هوت دوغ راي و رون",
    "coordinates": [
      35.4783664,
      33.8966769
    ]
  },
  {
    "name": "وك أند رولّ",
    "coordinates": [
      35.4775923,
      33.8976963
    ]
  },
  {
    "name": "مخفر حبيش",
    "coordinates": [
      35.4773112,
      33.8984573
    ]
  },
  {
    "name": "كاريبو كوفي",
    "coordinates": [
      35.4811859,
      33.895697
    ]
  },
  {
    "name": "موزيركير مود",
    "coordinates": [
      35.481262,
      33.8956828
    ]
  },
  {
    "name": "بربر",
    "coordinates": [
      35.483232,
      33.8944683
    ]
  },
  {
    "name": "ريد بوث",
    "coordinates": [
      35.4817269,
      33.89632
    ]
  },
  {
    "name": "كو حمرا",
    "coordinates": [
      35.4827629,
      33.8959105
    ]
  },
  {
    "name": "بودو",
    "coordinates": [
      35.482584,
      33.8959924
    ]
  },
  {
    "name": "كبابجي",
    "coordinates": [
      35.4824669,
      33.8991761
    ]
  },
  {
    "name": "أوتيل بيفيو",
    "coordinates": [
      35.4910599,
      33.9015855
    ]
  },
  {
    "name": "كلاسيك برغر ستوب",
    "coordinates": [
      35.4982832,
      33.9025147
    ]
  },
  {
    "name": "ودن بيكري",
    "coordinates": [
      35.6520108,
      34.1214391
    ]
  },
  {
    "name": "حاج سوبرستور",
    "coordinates": [
      35.6509154,
      34.1205801
    ]
  },
  {
    "name": "كاسكاد باروك",
    "coordinates": [
      35.6761411,
      33.7095239
    ]
  },
  {
    "name": "محمود ماركت",
    "coordinates": [
      35.6893063,
      33.7120158
    ]
  },
  {
    "name": "رأس النبع",
    "coordinates": [
      35.6919691,
      33.7120862
    ]
  },
  {
    "name": "نزل مار ميخائيل",
    "coordinates": [
      35.6716396,
      33.6671352
    ]
  },
  {
    "name": "فندق الباروك بالاس",
    "coordinates": [
      35.6902985,
      33.7123376
    ]
  },
  {
    "name": "فندق إيريس فلور",
    "coordinates": [
      35.5846962,
      33.5407869
    ]
  },
  {
    "name": "هوتيل أوبيرج",
    "coordinates": [
      35.583911,
      33.5433333
    ]
  },
  {
    "name": "مطعم بحيرة جزين",
    "coordinates": [
      35.5835884,
      33.545007
    ]
  },
  {
    "name": "سوبرماركت مزمر",
    "coordinates": [
      35.58362,
      33.5428055
    ]
  },
  {
    "name": "الأطلال",
    "coordinates": [
      35.7276137,
      33.8474513
    ]
  },
  {
    "name": "مودرن",
    "coordinates": [
      35.7364979,
      33.8340624
    ]
  },
  {
    "name": "حليم",
    "coordinates": [
      35.7347459,
      33.8407729
    ]
  },
  {
    "name": "الموارد",
    "coordinates": [
      35.7324044,
      33.8362615
    ]
  },
  {
    "name": "ديوان الحلبي",
    "coordinates": [
      35.7421371,
      33.8373135
    ]
  },
  {
    "name": "فالكون",
    "coordinates": [
      35.7273884,
      33.8486186
    ]
  },
  {
    "name": "الرامي",
    "coordinates": [
      35.7396675,
      33.8361609
    ]
  },
  {
    "name": "الرامي",
    "coordinates": [
      35.7396675,
      33.8361609
    ]
  },
  {
    "name": "ندا",
    "coordinates": [
      35.7314278,
      33.8438202
    ]
  },
  {
    "name": "دكتور جبران",
    "coordinates": [
      35.5217518,
      33.8665668
    ]
  },
  {
    "name": "عين الرمانة",
    "coordinates": [
      35.5221625,
      33.8668568
    ]
  },
  {
    "name": "بيت الغابة- بكاسين",
    "coordinates": [
      35.5678014,
      33.5583784
    ]
  },
  {
    "name": "مطعم أبو نعيم",
    "coordinates": [
      35.4834994,
      33.8952358
    ]
  },
  {
    "name": "سوبر ماركت شاهين",
    "coordinates": [
      35.4551849,
      33.7433555
    ]
  },
  {
    "name": "معمل فقيه للقازانات",
    "coordinates": [
      35.509962,
      33.8302926
    ]
  },
  {
    "name": "كومبو 2000 خدمات الإنترنت",
    "coordinates": [
      35.5124716,
      33.8396011
    ]
  },
  {
    "name": "مجوهرات فقيه",
    "coordinates": [
      35.5116678,
      33.8268198
    ]
  },
  {
    "name": "الكوثر",
    "coordinates": [
      35.507591,
      33.8285226
    ]
  },
  {
    "name": "الأمير",
    "coordinates": [
      35.5092718,
      33.8315002
    ]
  },
  {
    "name": "لورد برغر",
    "coordinates": [
      35.5108639,
      33.8332226
    ]
  },
  {
    "name": "بلدية ياطر",
    "coordinates": [
      35.3317167,
      33.1562281
    ]
  },
  {
    "name": "البتول",
    "coordinates": [
      35.4999875,
      33.8578399
    ]
  },
  {
    "name": "الفردوس",
    "coordinates": [
      35.5074631,
      33.8284525
    ]
  },
  {
    "name": "الهلال",
    "coordinates": [
      35.5082234,
      33.8334944
    ]
  },
  {
    "name": "مونتنغيت",
    "coordinates": [
      35.3819953,
      33.07841
    ]
  },
  {
    "name": "سوبرماركت ألبرت الحاج",
    "coordinates": [
      35.3652369,
      33.0768323
    ]
  },
  {
    "name": "نادي فقرة",
    "coordinates": [
      35.8103672,
      33.9841032
    ]
  },
  {
    "name": "سيدة الجمهور",
    "coordinates": [
      35.5645885,
      33.8329087
    ]
  },
  {
    "name": "نادي اليرزة",
    "coordinates": [
      35.5599179,
      33.8328315
    ]
  },
  {
    "name": "سفارة إيران",
    "coordinates": [
      35.489213,
      33.8565656
    ]
  },
  {
    "name": "سفارة هولندا",
    "coordinates": [
      35.5178249,
      33.8917386
    ]
  },
  {
    "name": "الرفح",
    "coordinates": [
      35.5053854,
      33.7809109
    ]
  },
  {
    "name": "ردنيز",
    "coordinates": [
      36.281827,
      34.5670841
    ]
  },
  {
    "name": "النخبة",
    "coordinates": [
      35.4956035,
      33.7861797
    ]
  },
  {
    "name": "ماكدونالدز",
    "coordinates": [
      35.5361926,
      33.8529607
    ]
  },
  {
    "name": "ماكدونالدز",
    "coordinates": [
      35.5829256,
      33.9105469
    ]
  },
  {
    "name": "ستاربكس",
    "coordinates": [
      35.572722,
      33.9005689
    ]
  },
  {
    "name": "ستاربكس",
    "coordinates": [
      35.5210739,
      33.8876304
    ]
  },
  {
    "name": "ليبان بوست",
    "coordinates": [
      35.5360487,
      33.8548854
    ]
  },
  {
    "name": "أبو خليل",
    "coordinates": [
      35.5521901,
      33.8599237
    ]
  },
  {
    "name": "بنك بيبلس",
    "coordinates": [
      35.570847,
      33.8872001
    ]
  },
  {
    "name": "برجر كنج",
    "coordinates": [
      35.6518462,
      33.982605
    ]
  },
  {
    "name": "دي آش إل",
    "coordinates": [
      35.526585,
      33.8679987
    ]
  },
  {
    "name": "دانكن دونتس",
    "coordinates": [
      35.5266762,
      33.8679296
    ]
  },
  {
    "name": "دانكن دونتس",
    "coordinates": [
      35.5266762,
      33.8679296
    ]
  },
  {
    "name": "كتن مول",
    "coordinates": [
      35.5265063,
      33.8682672
    ]
  },
  {
    "name": "مدرسة الرهبات الانطونيات",
    "coordinates": [
      35.4866497,
      33.3837911
    ]
  },
  {
    "name": "المدرسة المهنية",
    "coordinates": [
      35.4801711,
      33.3769026
    ]
  },
  {
    "name": "سرايا النبطيه",
    "coordinates": [
      35.483756,
      33.3799798
    ]
  },
  {
    "name": "المدرسة الانجيلية في النبطيه",
    "coordinates": [
      35.4871872,
      33.3765107
    ]
  },
  {
    "name": "مستشفى النجدة الشعبية",
    "coordinates": [
      35.4904437,
      33.3929456
    ]
  },
  {
    "name": "ثانوية حسن كامل الصباح",
    "coordinates": [
      35.4904515,
      33.3724961
    ]
  },
  {
    "name": "دجاج كنتاكي",
    "coordinates": [
      35.4820548,
      33.3810695
    ]
  },
  {
    "name": "مصرف لبنان المركزي",
    "coordinates": [
      35.4889466,
      33.3761455
    ]
  },
  {
    "name": "مصرف لبنان المركزي",
    "coordinates": [
      35.4889466,
      33.3761455
    ]
  },
  {
    "name": "الجامعة اللبنانية العالمية",
    "coordinates": [
      35.4973682,
      33.8846691
    ]
  },
  {
    "name": "مدرسة حسن كامل الصباح",
    "coordinates": [
      35.4940425,
      33.3733154
    ]
  },
  {
    "name": "فتاة",
    "coordinates": [
      35.5718806,
      33.8950932
    ]
  },
  {
    "name": "مدرسة رمادية",
    "coordinates": [
      35.2785585,
      33.1953679
    ]
  },
  {
    "name": "مصبغة مار جريس",
    "coordinates": [
      35.5509447,
      33.877441
    ]
  },
  {
    "name": "ملحمة وديع",
    "coordinates": [
      35.5525328,
      33.8790144
    ]
  },
  {
    "name": "ميني ماركت فارس",
    "coordinates": [
      35.5509809,
      33.8773509
    ]
  },
  {
    "name": "معهد الصنائع الدكوانة",
    "coordinates": [
      35.5481257,
      33.8789041
    ]
  },
  {
    "name": "نوتردام لبنان - حريصا",
    "coordinates": [
      35.6513606,
      33.9816403
    ]
  },
  {
    "name": "سوبرماركت ابو علي",
    "coordinates": [
      35.4749608,
      33.6824951
    ]
  },
  {
    "name": "بلدية بدادون",
    "coordinates": [
      35.5630771,
      33.8113762
    ]
  },
  {
    "name": "سوبرماركت سمعان",
    "coordinates": [
      35.5616638,
      33.8116024
    ]
  },
  {
    "name": "لمبد",
    "coordinates": [
      35.5629758,
      33.8835218
    ]
  },
  {
    "name": "ودن بيكري",
    "coordinates": [
      35.5377767,
      33.8514617
    ]
  },
  {
    "name": "مستشفى السان شارل",
    "coordinates": [
      35.5506217,
      33.8449195
    ]
  },
  {
    "name": "متحف الحرير",
    "coordinates": [
      35.5722818,
      33.8178984
    ]
  },
  {
    "name": "صيدلية ديب",
    "coordinates": [
      35.5600935,
      33.8132864
    ]
  },
  {
    "name": "باتيسري الشدياق",
    "coordinates": [
      35.5575773,
      33.8180254
    ]
  },
  {
    "name": "كلية العلوم الفرع الثالث",
    "coordinates": [
      35.856799,
      34.4359932
    ]
  },
  {
    "name": "كلية الأداب الفرع الثالث",
    "coordinates": [
      35.8539229,
      34.4359097
    ]
  },
  {
    "name": "ماكدونالدز",
    "coordinates": [
      35.4904099,
      33.9012141
    ]
  },
  {
    "name": "سوق حايك",
    "coordinates": [
      35.5119311,
      33.8957622
    ]
  },
  {
    "name": "فرن الأسمر",
    "coordinates": [
      35.8081167,
      34.4499548
    ]
  },
  {
    "name": "المدرسة الثانوية تعلبايا",
    "coordinates": [
      35.8705125,
      33.8174196
    ]
  },
  {
    "name": "بلدية تعلبايا",
    "coordinates": [
      35.8716132,
      33.8164634
    ]
  },
  {
    "name": "صيدلية الشعب",
    "coordinates": [
      35.8686615,
      33.818321
    ]
  },
  {
    "name": "الأمن العام",
    "coordinates": [
      35.9126843,
      33.8386157
    ]
  },
  {
    "name": "مستشفى شتورا",
    "coordinates": [
      35.8586781,
      33.8192371
    ]
  },
  {
    "name": "نايت كليب ماسه",
    "coordinates": [
      35.8520262,
      33.8161886
    ]
  },
  {
    "name": "بنك الإعتماد اللبناني",
    "coordinates": [
      35.8482657,
      33.8177708
    ]
  },
  {
    "name": "داغر الدامور",
    "coordinates": [
      35.4527457,
      33.7283468
    ]
  },
  {
    "name": "مطعم الشلالات الزرقا",
    "coordinates": [
      35.5337695,
      33.6525097
    ]
  },
  {
    "name": "نهر الحمام بعقلين",
    "coordinates": [
      35.5323908,
      33.6522512
    ]
  },
  {
    "name": "بلدية وادي شحرور السفلى",
    "coordinates": [
      35.5591057,
      33.8191308
    ]
  },
  {
    "name": "الصليب الأخمر",
    "coordinates": [
      35.5419316,
      33.8333769
    ]
  },
  {
    "name": "البنك اللبناني للتجارة",
    "coordinates": [
      35.5434887,
      33.8339308
    ]
  },
  {
    "name": "فرن المنشية",
    "coordinates": [
      35.5430734,
      33.8334233
    ]
  },
  {
    "name": "برينتانيا",
    "coordinates": [
      35.636261,
      33.8847423
    ]
  },
  {
    "name": "بلدية وادي الست",
    "coordinates": [
      35.6310262,
      33.7144901
    ]
  },
  {
    "name": "مدرسة كفرشيما الرسمية",
    "coordinates": [
      35.5345049,
      33.8139192
    ]
  },
  {
    "name": "الرجي",
    "coordinates": [
      35.5304262,
      33.8157794
    ]
  },
  {
    "name": "ملحمة طوني سليم",
    "coordinates": [
      35.5302987,
      33.8153395
    ]
  },
  {
    "name": "سناك ابو سعيد الحدث",
    "coordinates": [
      35.5298654,
      33.8407827
    ]
  },
  {
    "name": "مختبرات الحدث",
    "coordinates": [
      35.5303506,
      33.8394642
    ]
  },
  {
    "name": "بس",
    "coordinates": [
      36.2810944,
      34.5685411
    ]
  },
  {
    "name": "روضة جبيل الثانوية المختلطة",
    "coordinates": [
      35.6448269,
      34.1233379
    ]
  },
  {
    "name": "المستوصف الخيري الاسلامي",
    "coordinates": [
      35.6466507,
      34.1214306
    ]
  },
  {
    "name": "مدرسة القلبين الأقدسين جبيل",
    "coordinates": [
      35.6452174,
      34.122114
    ]
  },
  {
    "name": "كيروز للزراعة والتجارة",
    "coordinates": [
      35.6463763,
      34.1224835
    ]
  },
  {
    "name": "مطعم السلطان جبيل",
    "coordinates": [
      35.6436274,
      34.1219923
    ]
  },
  {
    "name": "العنتبلي",
    "coordinates": [
      35.6311953,
      34.0201848
    ]
  },
  {
    "name": "عودة",
    "coordinates": [
      35.5777954,
      33.8776062
    ]
  },
  {
    "name": "مكتبة نعمه",
    "coordinates": [
      35.5780801,
      33.8776428
    ]
  },
  {
    "name": "سوبرماركت مسعود الفنار",
    "coordinates": [
      35.5781387,
      33.8766709
    ]
  },
  {
    "name": "حلويات حلب",
    "coordinates": [
      35.5269989,
      33.8555631
    ]
  },
  {
    "name": "بلدية بسابا",
    "coordinates": [
      35.5406968,
      33.8072035
    ]
  },
  {
    "name": "نيو لاند",
    "coordinates": [
      35.5397211,
      33.8622216
    ]
  },
  {
    "name": "البنك اللبناني الفرنسي",
    "coordinates": [
      35.5679371,
      33.8541738
    ]
  },
  {
    "name": "برومير سوان",
    "coordinates": [
      35.5875922,
      33.855701
    ]
  },
  {
    "name": "صيدلية سان شارل",
    "coordinates": [
      35.5466775,
      33.845676
    ]
  },
  {
    "name": "فلافل أبو إلياس",
    "coordinates": [
      35.5446939,
      33.8359163
    ]
  },
  {
    "name": "فارما رولا",
    "coordinates": [
      35.5344133,
      33.8380034
    ]
  },
  {
    "name": "مار مارون",
    "coordinates": [
      35.5350007,
      33.8333003
    ]
  },
  {
    "name": "منقوش",
    "coordinates": [
      35.5308402,
      33.8392482
    ]
  },
  {
    "name": "الدفاع المدني الحدت",
    "coordinates": [
      35.5302483,
      33.8314331
    ]
  },
  {
    "name": "بنك بيروت",
    "coordinates": [
      35.5342708,
      33.8595577
    ]
  },
  {
    "name": "دجاج كنتاكي",
    "coordinates": [
      35.5650347,
      33.8533966
    ]
  },
  {
    "name": "مكتبة انطوان",
    "coordinates": [
      35.5392393,
      33.876594
    ]
  },
  {
    "name": "كركلا مسرح ايفوار",
    "coordinates": [
      35.5378178,
      33.8750875
    ]
  },
  {
    "name": "العائﻻت",
    "coordinates": [
      35.5358297,
      33.8154474
    ]
  },
  {
    "name": "ابو عرب الحدث",
    "coordinates": [
      35.5275972,
      33.8532353
    ]
  },
  {
    "name": "ملحمة عوض",
    "coordinates": [
      35.5772547,
      33.8788109
    ]
  },
  {
    "name": "جزار اسبريدن",
    "coordinates": [
      35.5314477,
      33.8332822
    ]
  },
  {
    "name": "مار جرجس",
    "coordinates": [
      35.534737,
      33.8426493
    ]
  },
  {
    "name": "معهد الضرير",
    "coordinates": [
      35.5364838,
      33.8292209
    ]
  },
  {
    "name": "دكانة ميلاد",
    "coordinates": [
      35.5296828,
      33.832869
    ]
  },
  {
    "name": "دكانة ميلاد",
    "coordinates": [
      35.5296828,
      33.832869
    ]
  },
  {
    "name": "فرن",
    "coordinates": [
      35.5426517,
      33.8323824
    ]
  },
  {
    "name": "سندرا",
    "coordinates": [
      35.53323,
      33.8433256
    ]
  },
  {
    "name": "سنسياس",
    "coordinates": [
      35.5567621,
      33.8599876
    ]
  },
  {
    "name": "هيونداي",
    "coordinates": [
      35.5642614,
      33.8537421
    ]
  },
  {
    "name": "بومبينو",
    "coordinates": [
      35.5232445,
      33.8628392
    ]
  },
  {
    "name": "داود",
    "coordinates": [
      35.5336747,
      33.8439565
    ]
  },
  {
    "name": "أحذية أبو كريم",
    "coordinates": [
      35.5300952,
      33.8356375
    ]
  },
  {
    "name": "هوت دوغ",
    "coordinates": [
      35.5398623,
      33.8381316
    ]
  },
  {
    "name": "أتويه",
    "coordinates": [
      35.5303192,
      33.8330102
    ]
  },
  {
    "name": "مار جرجس",
    "coordinates": [
      35.5346097,
      33.8432609
    ]
  },
  {
    "name": "ديزني تويز",
    "coordinates": [
      35.536146,
      33.8501801
    ]
  },
  {
    "name": "بيت الخبز",
    "coordinates": [
      35.5579539,
      33.8595602
    ]
  },
  {
    "name": "أبو عبده",
    "coordinates": [
      35.5788007,
      33.8531217
    ]
  },
  {
    "name": "شاورمنجي",
    "coordinates": [
      35.5653435,
      33.8532275
    ]
  },
  {
    "name": "فرح",
    "coordinates": [
      35.5315322,
      33.8329458
    ]
  },
  {
    "name": "مكتبة فيركو",
    "coordinates": [
      35.497824,
      33.8785862
    ]
  },
  {
    "name": "بنك بيروت",
    "coordinates": [
      35.4974027,
      33.8786083
    ]
  },
  {
    "name": "بلدية حومال",
    "coordinates": [
      35.5593032,
      33.8122122
    ]
  },
  {
    "name": "فلافل الساحة",
    "coordinates": [
      35.5325019,
      33.8416012
    ]
  },
  {
    "name": "النبع",
    "coordinates": [
      35.5334899,
      33.8101939
    ]
  },
  {
    "name": "كير",
    "coordinates": [
      35.5274882,
      33.8354273
    ]
  },
  {
    "name": "فرن الريجي",
    "coordinates": [
      35.527413,
      33.8300657
    ]
  },
  {
    "name": "فرن بسام",
    "coordinates": [
      35.5267033,
      33.8296462
    ]
  },
  {
    "name": "ديبكو",
    "coordinates": [
      35.5297961,
      33.8386198
    ]
  },
  {
    "name": "إليو",
    "coordinates": [
      35.5300629,
      33.8314278
    ]
  },
  {
    "name": "الشرتوني",
    "coordinates": [
      35.5315764,
      33.8329915
    ]
  },
  {
    "name": "سويس",
    "coordinates": [
      35.5489832,
      33.8535844
    ]
  },
  {
    "name": "رابيل",
    "coordinates": [
      35.5427163,
      33.8588711
    ]
  },
  {
    "name": "ألكساندر",
    "coordinates": [
      35.5878776,
      33.8525965
    ]
  },
  {
    "name": "نصار",
    "coordinates": [
      35.5732062,
      33.8558716
    ]
  },
  {
    "name": "فرن",
    "coordinates": [
      35.5778955,
      33.8538126
    ]
  },
  {
    "name": "السمار",
    "coordinates": [
      35.5792256,
      33.8541003
    ]
  },
  {
    "name": "المنصورية",
    "coordinates": [
      35.5682074,
      33.8575655
    ]
  },
  {
    "name": "خوري",
    "coordinates": [
      35.5465241,
      33.8532391
    ]
  },
  {
    "name": "بشارة",
    "coordinates": [
      35.5427831,
      33.835376
    ]
  },
  {
    "name": "بيطار",
    "coordinates": [
      35.5358787,
      33.8338793
    ]
  },
  {
    "name": "بي اسبشل",
    "coordinates": [
      35.5270774,
      33.832469
    ]
  },
  {
    "name": "صيدلية فرن الشباك الجديدة",
    "coordinates": [
      35.520599,
      33.8744968
    ]
  },
  {
    "name": "يمين",
    "coordinates": [
      35.5596444,
      33.8860841
    ]
  },
  {
    "name": "صيدلية أندريا",
    "coordinates": [
      35.7262777,
      33.8503976
    ]
  },
  {
    "name": "عودة",
    "coordinates": [
      35.5726132,
      33.9025136
    ]
  },
  {
    "name": "إليو",
    "coordinates": [
      35.5302152,
      33.8344798
    ]
  },
  {
    "name": "فرساي",
    "coordinates": [
      35.5639661,
      33.8563267
    ]
  },
  {
    "name": "مار رفائيل",
    "coordinates": [
      35.5716389,
      33.8571516
    ]
  },
  {
    "name": "المنا",
    "coordinates": [
      35.5752537,
      33.8570614
    ]
  },
  {
    "name": "ابو الزوز",
    "coordinates": [
      35.5745175,
      33.8572309
    ]
  },
  {
    "name": "فرن مارادونا",
    "coordinates": [
      35.5316876,
      33.8330444
    ]
  },
  {
    "name": "ميرا ماركت",
    "coordinates": [
      35.5278244,
      33.8341821
    ]
  },
  {
    "name": "فادي حنا",
    "coordinates": [
      35.5292347,
      33.8326447
    ]
  },
  {
    "name": "البنك اللبناني الفرنسي",
    "coordinates": [
      35.5331521,
      33.8438224
    ]
  },
  {
    "name": "سوسيتيه جنرال",
    "coordinates": [
      35.5379329,
      33.8697337
    ]
  },
  {
    "name": "بنك عودة",
    "coordinates": [
      35.5481315,
      33.8776464
    ]
  },
  {
    "name": "بطرس",
    "coordinates": [
      35.551401,
      33.8610338
    ]
  },
  {
    "name": "بنك عودة",
    "coordinates": [
      35.5015723,
      33.8984635
    ]
  },
  {
    "name": "القرية",
    "coordinates": [
      35.5327113,
      33.8350446
    ]
  },
  {
    "name": "نادر",
    "coordinates": [
      35.5285759,
      33.8315666
    ]
  },
  {
    "name": "فرن",
    "coordinates": [
      35.5281408,
      33.8318348
    ]
  },
  {
    "name": "فرن",
    "coordinates": [
      35.5299047,
      33.8328967
    ]
  },
  {
    "name": "حنين",
    "coordinates": [
      35.5372491,
      33.8334203
    ]
  },
  {
    "name": "سفارة الفلبين",
    "coordinates": [
      35.5344702,
      33.8430048
    ]
  },
  {
    "name": "برك",
    "coordinates": [
      35.5335722,
      33.8223688
    ]
  },
  {
    "name": "شعيا",
    "coordinates": [
      35.5299084,
      33.8321984
    ]
  },
  {
    "name": "برباري",
    "coordinates": [
      35.5297706,
      33.8329584
    ]
  },
  {
    "name": "البلدية الحديثة",
    "coordinates": [
      35.5321583,
      33.8370115
    ]
  },
  {
    "name": "تعاونية الجيش",
    "coordinates": [
      35.5348081,
      33.8506899
    ]
  },
  {
    "name": "باشا هوس",
    "coordinates": [
      35.5398311,
      33.8625993
    ]
  },
  {
    "name": "أبو إلياس",
    "coordinates": [
      35.549189,
      33.8624177
    ]
  },
  {
    "name": "خوري",
    "coordinates": [
      35.5500903,
      33.861874
    ]
  },
  {
    "name": "دارين",
    "coordinates": [
      35.5377778,
      33.8302881
    ]
  },
  {
    "name": "سعادة",
    "coordinates": [
      35.5338535,
      33.8337564
    ]
  },
  {
    "name": "الحدث",
    "coordinates": [
      35.5370225,
      33.8333598
    ]
  },
  {
    "name": "متري",
    "coordinates": [
      35.528716,
      33.8329511
    ]
  },
  {
    "name": "مار تقلا",
    "coordinates": [
      35.5461744,
      33.8558695
    ]
  },
  {
    "name": "سامي",
    "coordinates": [
      35.5299102,
      33.8317355
    ]
  },
  {
    "name": "جوزيف",
    "coordinates": [
      35.5340729,
      33.83472
    ]
  },
  {
    "name": "سالم",
    "coordinates": [
      35.5428349,
      33.8329058
    ]
  },
  {
    "name": "نورة",
    "coordinates": [
      35.5277631,
      33.8330799
    ]
  },
  {
    "name": "إلياس",
    "coordinates": [
      35.5307248,
      33.8384053
    ]
  },
  {
    "name": "الصحافة الجديدة",
    "coordinates": [
      35.5307541,
      33.8334461
    ]
  },
  {
    "name": "ريو",
    "coordinates": [
      35.5422556,
      33.8304406
    ]
  },
  {
    "name": "إلي حمصي",
    "coordinates": [
      35.5281505,
      33.8270339
    ]
  },
  {
    "name": "مبارك",
    "coordinates": [
      35.5315929,
      33.8331238
    ]
  },
  {
    "name": "فرن",
    "coordinates": [
      35.530016,
      33.8362874
    ]
  },
  {
    "name": "بعقلين",
    "coordinates": [
      35.5303765,
      33.8367607
    ]
  },
  {
    "name": "ماكدونالدز",
    "coordinates": [
      35.5445373,
      33.8832241
    ]
  },
  {
    "name": "فادي",
    "coordinates": [
      35.5310789,
      33.8330456
    ]
  },
  {
    "name": "إدي",
    "coordinates": [
      35.5298684,
      33.8330594
    ]
  },
  {
    "name": "داني",
    "coordinates": [
      35.533657,
      33.8386438
    ]
  },
  {
    "name": "جفينور روتانا",
    "coordinates": [
      35.4879423,
      33.8980962
    ]
  },
  {
    "name": "بنك الإمارات",
    "coordinates": [
      35.5092718,
      33.8922059
    ]
  },
  {
    "name": "سفارة الأردن",
    "coordinates": [
      35.5416137,
      33.8304221
    ]
  },
  {
    "name": "راتكو",
    "coordinates": [
      35.7020361,
      33.908606
    ]
  },
  {
    "name": "كول كت",
    "coordinates": [
      35.5296716,
      33.8381678
    ]
  },
  {
    "name": "رانا سل",
    "coordinates": [
      35.5298541,
      33.8380991
    ]
  },
  {
    "name": "شقير",
    "coordinates": [
      35.526744,
      33.8213692
    ]
  },
  {
    "name": "صايغ",
    "coordinates": [
      35.5737935,
      33.8522925
    ]
  },
  {
    "name": "محطة مياه",
    "coordinates": [
      35.5595617,
      33.8518936
    ]
  },
  {
    "name": "أبو غزالي",
    "coordinates": [
      35.5345254,
      33.8299342
    ]
  },
  {
    "name": "القلب الأقدس",
    "coordinates": [
      35.5644256,
      33.886264
    ]
  },
  {
    "name": "صيدلية الفنار",
    "coordinates": [
      35.5765739,
      33.8805179
    ]
  },
  {
    "name": "صيدلية رنا فنار",
    "coordinates": [
      35.5740415,
      33.8809904
    ]
  },
  {
    "name": "ألبينا",
    "coordinates": [
      35.5427287,
      33.8321994
    ]
  },
  {
    "name": "غسان",
    "coordinates": [
      35.529652,
      33.8327657
    ]
  },
  {
    "name": "مانيغرام",
    "coordinates": [
      35.5433802,
      33.8336878
    ]
  },
  {
    "name": "نعيم",
    "coordinates": [
      35.5335259,
      33.8305901
    ]
  },
  {
    "name": "فرن عين السيدة",
    "coordinates": [
      35.584723,
      33.79994
    ]
  },
  {
    "name": "ملك الطاووق الدكوانة",
    "coordinates": [
      35.5496738,
      33.8796558
    ]
  },
  {
    "name": "رينو",
    "coordinates": [
      35.5586059,
      33.883983
    ]
  },
  {
    "name": "المدرسة الألمانية",
    "coordinates": [
      35.641909,
      33.9940398
    ]
  },
  {
    "name": "برغر كنج",
    "coordinates": [
      35.6445074,
      33.9934199
    ]
  },
  {
    "name": "برغر كن",
    "coordinates": [
      35.6405607,
      33.9935816
    ]
  },
  {
    "name": "ام سمير",
    "coordinates": [
      35.6427985,
      33.9964312
    ]
  },
  {
    "name": "صيدلية ماريا",
    "coordinates": [
      35.6428538,
      33.9963468
    ]
  },
  {
    "name": "موج البحر",
    "coordinates": [
      35.6406626,
      33.9945666
    ]
  },
  {
    "name": "الشركة الجديدة لبنك سوريا ولبنان",
    "coordinates": [
      35.6392107,
      33.9877147
    ]
  },
  {
    "name": "خان بغداد",
    "coordinates": [
      35.6420879,
      33.994372
    ]
  },
  {
    "name": "بنك لبنان الفدرالي",
    "coordinates": [
      35.6373947,
      33.9866601
    ]
  },
  {
    "name": "أ. ﺑﺪورة",
    "coordinates": [
      35.6392933,
      33.9877742
    ]
  },
  {
    "name": "صيدلية ج. البستاني",
    "coordinates": [
      35.6419851,
      33.9920706
    ]
  },
  {
    "name": "بنك عودة",
    "coordinates": [
      35.640681,
      33.9936429
    ]
  },
  {
    "name": "فارما-جي",
    "coordinates": [
      35.6447319,
      34.0005149
    ]
  },
  {
    "name": "مانويلا",
    "coordinates": [
      35.6447601,
      34.004112
    ]
  },
  {
    "name": "أوسيانوس",
    "coordinates": [
      35.6440453,
      34.0004132
    ]
  },
  {
    "name": "لي تزيغان",
    "coordinates": [
      35.6446659,
      34.0033107
    ]
  },
  {
    "name": "فور ستارز",
    "coordinates": [
      35.6449173,
      34.0053073
    ]
  },
  {
    "name": "سنست",
    "coordinates": [
      35.6447467,
      34.0012458
    ]
  },
  {
    "name": "سيلورز",
    "coordinates": [
      35.6447451,
      34.0013522
    ]
  },
  {
    "name": "ساربتا/مكرا كومه",
    "coordinates": [
      35.2951359,
      33.4642272
    ]
  },
  {
    "name": "عوده الدوره",
    "coordinates": [
      35.5547903,
      33.8941504
    ]
  },
  {
    "name": "بنك سوريا ولبنان",
    "coordinates": [
      35.5549199,
      33.8942071
    ]
  },
  {
    "name": "باسل",
    "coordinates": [
      35.6485413,
      34.0030274
    ]
  },
  {
    "name": "سفارة الغابون",
    "coordinates": [
      35.5361276,
      33.8501369
    ]
  },
  {
    "name": "تيكو تيكو",
    "coordinates": [
      35.5473024,
      33.8776711
    ]
  },
  {
    "name": "مار أنطونيوس",
    "coordinates": [
      35.5664301,
      33.8896791
    ]
  },
  {
    "name": "بيدو",
    "coordinates": [
      35.5408112,
      33.8938807
    ]
  },
  {
    "name": "مانو بسطرمة",
    "coordinates": [
      35.5401433,
      33.8941702
    ]
  },
  {
    "name": "روستر دينر",
    "coordinates": [
      35.5223809,
      33.8921661
    ]
  },
  {
    "name": "كافيه كلينيسيان",
    "coordinates": [
      35.523374,
      33.895028
    ]
  },
  {
    "name": "أوسيانس",
    "coordinates": [
      35.523166,
      33.892501
    ]
  },
  {
    "name": "لالا تشيكن",
    "coordinates": [
      35.521933,
      33.891248
    ]
  },
  {
    "name": "سوشي سيركل",
    "coordinates": [
      35.523032,
      33.89214
    ]
  },
  {
    "name": "صليبا ماركت",
    "coordinates": [
      35.5245138,
      33.8963728
    ]
  },
  {
    "name": "وودستوك",
    "coordinates": [
      35.5270803,
      33.8976626
    ]
  },
  {
    "name": "دي باك دور",
    "coordinates": [
      35.5245852,
      33.8960897
    ]
  },
  {
    "name": "ليبان بوست",
    "coordinates": [
      35.5159728,
      33.8951667
    ]
  },
  {
    "name": "صيداية ايديل",
    "coordinates": [
      35.5196114,
      33.8952287
    ]
  },
  {
    "name": "كساب",
    "coordinates": [
      35.519798,
      33.895282
    ]
  },
  {
    "name": "بنك الاعتماد اللبناني",
    "coordinates": [
      35.521188,
      33.895611
    ]
  },
  {
    "name": "كلية العلوم جامعة القديس يوسف",
    "coordinates": [
      35.5644065,
      33.8649159
    ]
  },
  {
    "name": "فلافل صهيون",
    "coordinates": [
      35.5066454,
      33.8904075
    ]
  },
  {
    "name": "هوا تشكن",
    "coordinates": [
      35.510392,
      33.892485
    ]
  },
  {
    "name": "تذكار",
    "coordinates": [
      35.521432,
      33.895612
    ]
  },
  {
    "name": "البنك اللبناني الفرنسي",
    "coordinates": [
      35.5466381,
      33.8520349
    ]
  },
  {
    "name": "دلتشه فيتا",
    "coordinates": [
      35.5474253,
      33.8515238
    ]
  },
  {
    "name": "ستاربكس",
    "coordinates": [
      35.5332322,
      33.862306
    ]
  },
  {
    "name": "ندى",
    "coordinates": [
      35.5214935,
      33.866152
    ]
  },
  {
    "name": "سامية",
    "coordinates": [
      35.5216973,
      33.8661131
    ]
  },
  {
    "name": "خليفة",
    "coordinates": [
      35.5215015,
      33.8660997
    ]
  },
  {
    "name": "ماريتً كوتور",
    "coordinates": [
      35.5216946,
      33.8661788
    ]
  },
  {
    "name": "بغ سيل",
    "coordinates": [
      35.5215243,
      33.873675
    ]
  },
  {
    "name": "أبو شبكة",
    "coordinates": [
      35.6422883,
      33.9892645
    ]
  },
  {
    "name": "سيتي بلاس",
    "coordinates": [
      35.649525,
      34.0068141
    ]
  },
  {
    "name": "بورشه",
    "coordinates": [
      35.5883785,
      33.9321964
    ]
  },
  {
    "name": "خضرا",
    "coordinates": [
      35.5345463,
      33.8466801
    ]
  },
  {
    "name": "بيجو",
    "coordinates": [
      35.5325504,
      33.8889316
    ]
  },
  {
    "name": "فرنسابنك",
    "coordinates": [
      35.5162372,
      33.8734192
    ]
  },
  {
    "name": "بنك بيروت والبلاد العربية",
    "coordinates": [
      35.5182946,
      33.8745633
    ]
  },
  {
    "name": "بنك بيبلوس",
    "coordinates": [
      35.518069,
      33.8742215
    ]
  },
  {
    "name": "ثانوية رأس المتن الرسمية",
    "coordinates": [
      35.6610027,
      33.8476876
    ]
  },
  {
    "name": "البنك اللبناني للتجارة",
    "coordinates": [
      35.6477731,
      34.1216707
    ]
  },
  {
    "name": "بنك سوسيتيه جنرال في لبنان",
    "coordinates": [
      35.6480085,
      34.1219125
    ]
  },
  {
    "name": "شجرة الزيتون",
    "coordinates": [
      35.5094557,
      33.8859681
    ]
  },
  {
    "name": "مدرسة ليفون وصوفيا هاكوبيان",
    "coordinates": [
      35.5396689,
      33.892978
    ]
  },
  {
    "name": "المدرسة الأرمينية الأربعين شهيد",
    "coordinates": [
      35.5382374,
      33.8926663
    ]
  },
  {
    "name": "مدرسة فاهان تيكيان",
    "coordinates": [
      35.5383235,
      33.8960165
    ]
  },
  {
    "name": "مركز شغزويان الثقافي",
    "coordinates": [
      35.538771,
      33.8958561
    ]
  },
  {
    "name": "كريباواي",
    "coordinates": [
      35.5257722,
      33.8685217
    ]
  },
  {
    "name": "الجامعة اللبنانية",
    "coordinates": [
      35.6077372,
      33.8034817
    ]
  },
  {
    "name": "مدرسة الرهبان الأنطونية",
    "coordinates": [
      35.5937257,
      33.7339224
    ]
  },
  {
    "name": "سبيل مياه",
    "coordinates": [
      35.7175897,
      33.915362
    ]
  },
  {
    "name": "البضن",
    "coordinates": [
      35.840075,
      34.4418009
    ]
  },
  {
    "name": "عودة الحمراء",
    "coordinates": [
      35.4809844,
      33.8957262
    ]
  },
  {
    "name": "فندق نابليون",
    "coordinates": [
      35.4800474,
      33.8971357
    ]
  },
  {
    "name": "رية",
    "coordinates": [
      35.5233471,
      33.8627865
    ]
  },
  {
    "name": "ودن بيكري",
    "coordinates": [
      35.5258121,
      33.8643589
    ]
  },
  {
    "name": "ابو عرب البوار",
    "coordinates": [
      35.6306157,
      34.0401715
    ]
  },
  {
    "name": "رصيف بيروت",
    "coordinates": [
      35.4844673,
      33.8974423
    ]
  },
  {
    "name": "مطعم الشيخ",
    "coordinates": [
      35.3684644,
      33.5625096
    ]
  },
  {
    "name": "بيت الصحة",
    "coordinates": [
      35.5203974,
      33.8815733
    ]
  },
  {
    "name": "ماكروديت",
    "coordinates": [
      35.5208373,
      33.8810428
    ]
  },
  {
    "name": "ألين جاموس",
    "coordinates": [
      35.5410834,
      33.8343367
    ]
  },
  {
    "name": "فرن القزي",
    "coordinates": [
      35.5340896,
      33.8340753
    ]
  },
  {
    "name": "صيدلية سالمتك",
    "coordinates": [
      35.8573074,
      33.8108244
    ]
  },
  {
    "name": "ملك الطاووق أبراج",
    "coordinates": [
      35.5263357,
      33.8680207
    ]
  },
  {
    "name": "مستشفى معربس",
    "coordinates": [
      35.5190066,
      33.8729741
    ]
  },
  {
    "name": "مالك الفول",
    "coordinates": [
      35.4797037,
      33.8977737
    ]
  },
  {
    "name": "متجر بيروت الصحي",
    "coordinates": [
      35.4780171,
      33.8968046
    ]
  },
  {
    "name": "بلدية الشبانية",
    "coordinates": [
      35.7071775,
      33.8205633
    ]
  },
  {
    "name": "فرن",
    "coordinates": [
      35.5305747,
      33.8932831
    ]
  },
  {
    "name": "الانوار",
    "coordinates": [
      35.8202813,
      34.4467003
    ]
  },
  {
    "name": "فلافل أبو الزيز",
    "coordinates": [
      35.5066416,
      33.8902819
    ]
  },
  {
    "name": "فلافل أبو الزيز",
    "coordinates": [
      35.4877192,
      33.8954051
    ]
  },
  {
    "name": "فلافل كريم صهيون",
    "coordinates": [
      35.4801379,
      33.897993
    ]
  },
  {
    "name": "ملك البطاطا",
    "coordinates": [
      35.4803661,
      33.8959941
    ]
  },
  {
    "name": "طاولة",
    "coordinates": [
      35.5320346,
      33.8971086
    ]
  },
  {
    "name": "فرن السيدة",
    "coordinates": [
      35.5728907,
      33.8575853
    ]
  },
  {
    "name": "شمسين",
    "coordinates": [
      35.4696068,
      33.7718744
    ]
  },
  {
    "name": "فرن جرجي",
    "coordinates": [
      35.5378299,
      33.8124395
    ]
  },
  {
    "name": "ذا غراند فكتري",
    "coordinates": [
      35.5421088,
      33.8997171
    ]
  },
  {
    "name": "مصرف لبنان",
    "coordinates": [
      35.5976462,
      33.8054777
    ]
  },
  {
    "name": "شربل يونس",
    "coordinates": [
      35.7096462,
      34.0600411
    ]
  },
  {
    "name": "أبلبيز",
    "coordinates": [
      35.5898734,
      33.9332673
    ]
  },
  {
    "name": "بيروت باي بايك",
    "coordinates": [
      35.5043069,
      33.9048062
    ]
  },
  {
    "name": "ثانوية حسين مسعود الرسمية",
    "coordinates": [
      35.5268115,
      33.7881975
    ]
  },
  {
    "name": "إستراحة القلعة بدادون",
    "coordinates": [
      35.5649839,
      33.8067919
    ]
  },
  {
    "name": "بريد هاوس",
    "coordinates": [
      35.6600723,
      34.2292929
    ]
  },
  {
    "name": "مدرسة العائلة المقدسة الإبتدائية",
    "coordinates": [
      35.5700191,
      33.808284
    ]
  },
  {
    "name": "مدرسة الراهبات الأنطونيات",
    "coordinates": [
      35.5464124,
      33.8547905
    ]
  },
  {
    "name": "تي اس سي بلوس",
    "coordinates": [
      35.5347045,
      33.8543472
    ]
  },
  {
    "name": "هيبرماركت بو خليل",
    "coordinates": [
      35.5368758,
      33.8515442
    ]
  },
  {
    "name": "الأخوة اللبنانية الحدث",
    "coordinates": [
      35.5276113,
      33.8283839
    ]
  },
  {
    "name": "أبو طنوس",
    "coordinates": [
      35.5276979,
      33.8291044
    ]
  },
  {
    "name": "ملحمة الحدشيتي",
    "coordinates": [
      35.5278706,
      33.8279785
    ]
  },
  {
    "name": "ماكدونالدز",
    "coordinates": [
      35.5701848,
      33.8543587
    ]
  },
  {
    "name": "برغر كينغ",
    "coordinates": [
      35.57119,
      33.8548511
    ]
  },
  {
    "name": "المبرات ثانوية الكوثر",
    "coordinates": [
      35.4945585,
      33.8478963
    ]
  },
  {
    "name": "مطعم الساخة",
    "coordinates": [
      35.4975475,
      33.8440307
    ]
  },
  {
    "name": "كاليري ريما كلاس",
    "coordinates": [
      35.4853066,
      33.8470706
    ]
  },
  {
    "name": "كاليري الندى",
    "coordinates": [
      35.4852234,
      33.8465056
    ]
  },
  {
    "name": "السفارة الكويتية",
    "coordinates": [
      35.4944756,
      33.8593923
    ]
  },
  {
    "name": "سنترال المنصورية",
    "coordinates": [
      35.5764838,
      33.8558774
    ]
  },
  {
    "name": "العائلة المقدسة بعبدا",
    "coordinates": [
      35.5449612,
      33.8318801
    ]
  },
  {
    "name": "سوسيتيه جنرال",
    "coordinates": [
      35.5412794,
      33.834177
    ]
  },
  {
    "name": "قهوة العين الحدث",
    "coordinates": [
      35.5296293,
      33.841019
    ]
  },
  {
    "name": "كافيه يونس",
    "coordinates": [
      35.4801071,
      33.8954712
    ]
  },
  {
    "name": "سناك الجزيرة",
    "coordinates": [
      35.4875864,
      33.8931656
    ]
  },
  {
    "name": "تمثال بشارة الخوري",
    "coordinates": [
      35.5064411,
      33.8865659
    ]
  },
  {
    "name": "فرنسابنك",
    "coordinates": [
      35.5025427,
      33.8762597
    ]
  },
  {
    "name": "دار الأيتام",
    "coordinates": [
      35.5027188,
      33.8760133
    ]
  },
  {
    "name": "مر",
    "coordinates": [
      35.5262705,
      33.8285556
    ]
  },
  {
    "name": "كومندو",
    "coordinates": [
      35.5534395,
      33.8464206
    ]
  },
  {
    "name": "نبيل",
    "coordinates": [
      35.5644631,
      33.8167152
    ]
  },
  {
    "name": "بطل للانارة",
    "coordinates": [
      35.4928284,
      33.8802872
    ]
  },
  {
    "name": "كاليري بيضون",
    "coordinates": [
      35.5072986,
      33.8744788
    ]
  },
  {
    "name": "ماكدونالدز",
    "coordinates": [
      35.5891119,
      33.9295457
    ]
  },
  {
    "name": "أودي",
    "coordinates": [
      35.5921623,
      33.9391897
    ]
  },
  {
    "name": "دجاج كنتاكي",
    "coordinates": [
      35.5736293,
      33.9037646
    ]
  },
  {
    "name": "كيا موتورز",
    "coordinates": [
      35.5879981,
      33.9307908
    ]
  },
  {
    "name": "ودن بيكري",
    "coordinates": [
      35.5413061,
      33.8957469
    ]
  },
  {
    "name": "بنك عودة",
    "coordinates": [
      35.5140761,
      33.8919785
    ]
  },
  {
    "name": "جلسة العرزال",
    "coordinates": [
      35.8026841,
      34.0157701
    ]
  },
  {
    "name": "من تراثنا",
    "coordinates": [
      35.803124,
      34.0154811
    ]
  },
  {
    "name": "سان جورجيو",
    "coordinates": [
      35.8036336,
      34.0151476
    ]
  },
  {
    "name": "النجوم",
    "coordinates": [
      35.8040735,
      34.0151165
    ]
  },
  {
    "name": "ربعة زينا",
    "coordinates": [
      35.7031231,
      33.9828733
    ]
  },
  {
    "name": "مركز السيدة",
    "coordinates": [
      35.5874143,
      33.9100619
    ]
  },
  {
    "name": "برجر كنج",
    "coordinates": [
      35.5882267,
      33.9249918
    ]
  },
  {
    "name": "دانكن دونتس",
    "coordinates": [
      35.6408064,
      33.9939336
    ]
  },
  {
    "name": "كافيماتك",
    "coordinates": [
      35.492886,
      33.825843
    ]
  },
  {
    "name": "أكلي",
    "coordinates": [
      35.4936454,
      33.8253439
    ]
  },
  {
    "name": "شكسبير",
    "coordinates": [
      35.5874723,
      33.9291731
    ]
  },
  {
    "name": "سينما ستي",
    "coordinates": [
      35.5644677,
      33.8969342
    ]
  },
  {
    "name": "ستاربكس",
    "coordinates": [
      35.5294155,
      33.8631462
    ]
  },
  {
    "name": "بي إف شنغز",
    "coordinates": [
      35.5296415,
      33.8625573
    ]
  },
  {
    "name": "ستاربكس",
    "coordinates": [
      35.5296905,
      33.8623639
    ]
  },
  {
    "name": "فكس",
    "coordinates": [
      35.52949,
      33.8615657
    ]
  },
  {
    "name": "بعقليني",
    "coordinates": [
      35.6242314,
      33.9784417
    ]
  },
  {
    "name": "ميترو",
    "coordinates": [
      35.6488351,
      34.0068898
    ]
  },
  {
    "name": "سوق الخضار",
    "coordinates": [
      35.6470109,
      34.074014
    ]
  },
  {
    "name": "نصر",
    "coordinates": [
      35.6456344,
      34.1455027
    ]
  },
  {
    "name": "بلدية ميفوق القطارة",
    "coordinates": [
      35.7783862,
      34.1829802
    ]
  },
  {
    "name": "ميرسيدس",
    "coordinates": [
      35.6358656,
      34.0463324
    ]
  },
  {
    "name": "مسعد",
    "coordinates": [
      35.5371068,
      33.8595141
    ]
  },
  {
    "name": "متحف الحياة البرية والبحرية",
    "coordinates": [
      35.6337208,
      33.9486721
    ]
  },
  {
    "name": "ديك دوك",
    "coordinates": [
      35.5644065,
      33.8968185
    ]
  },
  {
    "name": "سانت جان",
    "coordinates": [
      35.6467539,
      34.000165
    ]
  },
  {
    "name": "بابل",
    "coordinates": [
      35.5920544,
      33.9414709
    ]
  },
  {
    "name": "البنك اللبناني السويسري",
    "coordinates": [
      35.6143535,
      33.9328003
    ]
  },
  {
    "name": "كوب",
    "coordinates": [
      35.6122453,
      33.9322662
    ]
  },
  {
    "name": "الطاحونة الذهبية",
    "coordinates": [
      35.5931772,
      33.9320723
    ]
  },
  {
    "name": "مخابز الحطب",
    "coordinates": [
      35.6074232,
      33.9342814
    ]
  },
  {
    "name": "فدكس",
    "coordinates": [
      35.5365435,
      33.8680174
    ]
  },
  {
    "name": "فرن العذرا",
    "coordinates": [
      35.7090892,
      34.0632699
    ]
  },
  {
    "name": "صيدلية",
    "coordinates": [
      35.7289751,
      34.0521235
    ]
  },
  {
    "name": "دكتور بستاني",
    "coordinates": [
      35.7289658,
      34.0521516
    ]
  },
  {
    "name": "الفونس",
    "coordinates": [
      35.7088769,
      34.0634634
    ]
  },
  {
    "name": "مار تقلا",
    "coordinates": [
      35.5590864,
      33.8872328
    ]
  },
  {
    "name": "بيوتي هوم",
    "coordinates": [
      35.5107121,
      33.8583312
    ]
  },
  {
    "name": "مايك سبور",
    "coordinates": [
      35.5145023,
      33.8546124
    ]
  },
  {
    "name": "ديبة",
    "coordinates": [
      35.5619401,
      33.8904906
    ]
  },
  {
    "name": "مايك سبور",
    "coordinates": [
      35.57081,
      33.9019044
    ]
  },
  {
    "name": "صيدلية رامي",
    "coordinates": [
      35.6196051,
      33.9304385
    ]
  },
  {
    "name": "ليالي الشمس",
    "coordinates": [
      35.9410458,
      33.7352987
    ]
  },
  {
    "name": "بريد الاشرفية;اوبتيك قصوف",
    "coordinates": [
      35.5193374,
      33.8876268
    ]
  },
  {
    "name": "بنك لبنان والمهجر",
    "coordinates": [
      35.5209217,
      33.88676
    ]
  },
  {
    "name": "فارست ناشونال بنك",
    "coordinates": [
      35.5210606,
      33.8864694
    ]
  },
  {
    "name": "صالح ديكور",
    "coordinates": [
      35.5208385,
      33.8824767
    ]
  },
  {
    "name": "حبوب",
    "coordinates": [
      35.5127225,
      33.8355366
    ]
  },
  {
    "name": "فرن",
    "coordinates": [
      35.5126517,
      33.8356646
    ]
  },
  {
    "name": "مستشفى سيدة المعونات جبيل",
    "coordinates": [
      35.6588606,
      34.1281622
    ]
  },
  {
    "name": "يسوع الفادي",
    "coordinates": [
      35.8694356,
      33.8414471
    ]
  },
  {
    "name": "أبو حسان حمص",
    "coordinates": [
      35.5428415,
      33.8925534
    ]
  },
  {
    "name": "اميريكان اوتليت",
    "coordinates": [
      35.5203232,
      33.8562256
    ]
  },
  {
    "name": "جلسة الصخرة",
    "coordinates": [
      35.7648934,
      34.0106278
    ]
  },
  {
    "name": "جامعة اللبنانية الفرنسية",
    "coordinates": [
      35.4883694,
      33.8973077
    ]
  },
  {
    "name": "ضيا",
    "coordinates": [
      35.5138329,
      33.8548446
    ]
  },
  {
    "name": "احذية بعلبكي",
    "coordinates": [
      35.5134385,
      33.8548851
    ]
  },
  {
    "name": "الدورادو",
    "coordinates": [
      35.4985823,
      33.8458647
    ]
  },
  {
    "name": "اميريكن اوتليت",
    "coordinates": [
      35.5162566,
      33.8663758
    ]
  },
  {
    "name": "قبلان تويز",
    "coordinates": [
      35.525037,
      33.845802
    ]
  },
  {
    "name": "الصليب الأحمر اللبناني",
    "coordinates": [
      35.213435,
      33.2588237
    ]
  },
  {
    "name": "دكتور انطوان ابي فاضل",
    "coordinates": [
      35.5228166,
      33.8874094
    ]
  },
  {
    "name": "ستوريوم صليبا",
    "coordinates": [
      35.6305617,
      33.9206337
    ]
  },
  {
    "name": "مستشفى مظلوم",
    "coordinates": [
      35.8327696,
      34.431834
    ]
  },
  {
    "name": "بييتري",
    "coordinates": [
      35.4870849,
      33.8958647
    ]
  },
  {
    "name": "سناك شادي",
    "coordinates": [
      35.5571948,
      33.841737
    ]
  },
  {
    "name": "مدرسة أبن خلدون",
    "coordinates": [
      35.8494371,
      34.4137785
    ]
  },
  {
    "name": "مسرح جورج الخامس",
    "coordinates": [
      35.6097166,
      33.9658749
    ]
  },
  {
    "name": "مدرسة الصلاح المتوسطة الرسمية للبنات",
    "coordinates": [
      35.8451566,
      34.4264898
    ]
  },
  {
    "name": "مدرسة بطرماز الرسمية",
    "coordinates": [
      36.0358578,
      34.4213137
    ]
  },
  {
    "name": "مركز وادي خالد الصحي",
    "coordinates": [
      36.3591836,
      34.6301759
    ]
  },
  {
    "name": "صيدلية شعلان",
    "coordinates": [
      36.3634359,
      34.6386194
    ]
  },
  {
    "name": "صيدلية وادي خالد",
    "coordinates": [
      36.3457022,
      34.6601692
    ]
  },
  {
    "name": "مدرسة وثانوية البقيعة",
    "coordinates": [
      36.3317645,
      34.6626323
    ]
  },
  {
    "name": "مقهى بيتر",
    "coordinates": [
      36.0545758,
      34.5352434
    ]
  },
  {
    "name": "مدرسة أسطفان جوان عاصي الرسمية",
    "coordinates": [
      35.6855432,
      34.1704595
    ]
  },
  {
    "name": "عشقوت بيكنيك",
    "coordinates": [
      35.7095714,
      33.9981981
    ]
  },
  {
    "name": "الدفاع المدني",
    "coordinates": [
      36.364138,
      34.6345916
    ]
  },
  {
    "name": "أفران وادي خالد",
    "coordinates": [
      36.3868827,
      34.623787
    ]
  },
  {
    "name": "أسكندر",
    "coordinates": [
      35.5163132,
      33.8430999
    ]
  },
  {
    "name": "صيدلية عماد - Imad Pharmacy",
    "coordinates": [
      35.5025613,
      33.8425243
    ]
  },
  {
    "name": "سوبر ماركت أبو خليل",
    "coordinates": [
      35.4743422,
      33.8933533
    ]
  },
  {
    "name": "سيتي كافه",
    "coordinates": [
      35.4773033,
      33.8937367
    ]
  },
  {
    "name": "تكميلية حرار الرسمية",
    "coordinates": [
      36.1243756,
      34.459587
    ]
  },
  {
    "name": "الامن العام برج البراجنة",
    "coordinates": [
      35.5071831,
      33.8410008
    ]
  },
  {
    "name": "راديو كوم",
    "coordinates": [
      35.6090274,
      33.9607299
    ]
  },
  {
    "name": "آرشيتك",
    "coordinates": [
      35.5419154,
      33.8783879
    ]
  },
  {
    "name": "ملحمة ابو مراد",
    "coordinates": [
      35.5584215,
      33.8174196
    ]
  },
  {
    "name": "غولدن توليب",
    "coordinates": [
      35.483553,
      33.8972759
    ]
  },
  {
    "name": "فرن سباسيال بايكري",
    "coordinates": [
      35.5780298,
      33.8771915
    ]
  },
  {
    "name": "مسرح الحكمة",
    "coordinates": [
      35.570146,
      33.8902535
    ]
  },
  {
    "name": "تعاونية العين",
    "coordinates": [
      36.3705153,
      34.2246979
    ]
  },
  {
    "name": "بيتزابيتزا",
    "coordinates": [
      35.503326,
      33.858857
    ]
  },
  {
    "name": "اوركا",
    "coordinates": [
      35.5248293,
      33.8476184
    ]
  },
  {
    "name": "عصير الرضا",
    "coordinates": [
      35.5149241,
      33.8521415
    ]
  },
  {
    "name": "د. حسن الحركة",
    "coordinates": [
      35.5144263,
      33.837847
    ]
  },
  {
    "name": "السفارة التركية",
    "coordinates": [
      35.6042597,
      33.9185154
    ]
  },
  {
    "name": "ستاربكس",
    "coordinates": [
      35.6487487,
      33.9976771
    ]
  },
  {
    "name": "سوق ايام زمان",
    "coordinates": [
      35.5830698,
      33.8298791
    ]
  },
  {
    "name": "بنك عودة",
    "coordinates": [
      35.5360028,
      33.8553965
    ]
  },
  {
    "name": "يونايتد",
    "coordinates": [
      35.5364749,
      33.8676573
    ]
  },
  {
    "name": "سفارة النمسا",
    "coordinates": [
      35.5125428,
      33.8924331
    ]
  },
  {
    "name": "دي آش إل",
    "coordinates": [
      35.5057092,
      33.8946945
    ]
  },
  {
    "name": "السفارة الألمانية",
    "coordinates": [
      35.6166857,
      33.9207107
    ]
  },
  {
    "name": "رواق الورد",
    "coordinates": [
      35.52871,
      33.8884995
    ]
  },
  {
    "name": "رياق",
    "coordinates": [
      36.0058785,
      33.8517203
    ]
  },
  {
    "name": "شلفون",
    "coordinates": [
      36.0050175,
      33.8498715
    ]
  },
  {
    "name": "مخفر شرطة",
    "coordinates": [
      36.013901,
      33.8510995
    ]
  },
  {
    "name": "دلول",
    "coordinates": [
      36.0150753,
      33.8499107
    ]
  },
  {
    "name": "صالة اعراس",
    "coordinates": [
      36.0120982,
      33.8489384
    ]
  },
  {
    "name": "الحياة",
    "coordinates": [
      36.0041267,
      33.8464167
    ]
  },
  {
    "name": "لارا",
    "coordinates": [
      35.6334683,
      33.9848164
    ]
  },
  {
    "name": "ساحة عين القمين",
    "coordinates": [
      35.5670863,
      33.7630909
    ]
  },
  {
    "name": "مقانق اميل ابوخليل",
    "coordinates": [
      35.5805642,
      33.828207
    ]
  },
  {
    "name": "بارادكس",
    "coordinates": [
      35.5718309,
      33.8964187
    ]
  },
  {
    "name": "سوبرماركت مروة",
    "coordinates": [
      35.4378376,
      33.1205462
    ]
  },
  {
    "name": "آل عبد الله",
    "coordinates": [
      35.2191473,
      33.2633159
    ]
  },
  {
    "name": "جسر المبرة",
    "coordinates": [
      35.4655885,
      33.7673461
    ]
  },
  {
    "name": "الامير",
    "coordinates": [
      35.4662205,
      33.7644291
    ]
  },
  {
    "name": "فندق الأسطورة",
    "coordinates": [
      35.4808719,
      33.8854065
    ]
  },
  {
    "name": "مطعم أبو ماهر",
    "coordinates": [
      35.4748839,
      33.7799042
    ]
  },
  {
    "name": "بنك الاعتماد اللبناني",
    "coordinates": [
      35.6327502,
      33.8841099
    ]
  },
  {
    "name": "بنك المتوسط",
    "coordinates": [
      35.6268894,
      33.8823489
    ]
  },
  {
    "name": "برينتانيا فيلا",
    "coordinates": [
      35.6356493,
      33.8850482
    ]
  },
  {
    "name": "ميفلور",
    "coordinates": [
      35.4812838,
      33.8948723
    ]
  },
  {
    "name": "غوسطا",
    "coordinates": [
      35.6721905,
      33.9894941
    ]
  },
  {
    "name": "حنون",
    "coordinates": [
      35.5210844,
      33.8672698
    ]
  },
  {
    "name": "ماكدونالدز",
    "coordinates": [
      35.3796219,
      33.558823
    ]
  },
  {
    "name": "فندق رخيص",
    "coordinates": [
      35.4090234,
      33.1425741
    ]
  },
  {
    "name": "استراحة أبو هادي",
    "coordinates": [
      35.5102587,
      33.8630825
    ]
  },
  {
    "name": "شاورما الزهراء",
    "coordinates": [
      35.5116712,
      33.8601414
    ]
  },
  {
    "name": "سعد صباح",
    "coordinates": [
      35.4756387,
      33.3305478
    ]
  },
  {
    "name": "كلير",
    "coordinates": [
      35.5590442,
      33.8929584
    ]
  },
  {
    "name": "بيت أبو أنطون",
    "coordinates": [
      35.7132759,
      33.8967508
    ]
  },
  {
    "name": "حطبة ونار",
    "coordinates": [
      36.2666655,
      34.5804469
    ]
  },
  {
    "name": "لو ريغال",
    "coordinates": [
      35.5466121,
      33.8522864
    ]
  },
  {
    "name": "متحف الحيوانات والفراشات",
    "coordinates": [
      36.2792697,
      34.5667187
    ]
  },
  {
    "name": "وجبة خفيفة أديب",
    "coordinates": [
      35.7068017,
      33.978066
    ]
  },
  {
    "name": "دجاج وتوم كفرشيما",
    "coordinates": [
      35.5274621,
      33.8229839
    ]
  },
  {
    "name": "تمثال يوسف بيك كرم اهدن",
    "coordinates": [
      35.9667251,
      34.2898353
    ]
  },
  {
    "name": "جثمان يوسف بيك كرم",
    "coordinates": [
      35.9669986,
      34.2899638
    ]
  },
  {
    "name": "بحيرة الشوان",
    "coordinates": [
      35.7855583,
      34.0811558
    ]
  },
  {
    "name": "محل بهجت محمود عبد الصمد",
    "coordinates": [
      35.6082655,
      33.6426379
    ]
  },
  {
    "name": "إف إم سي",
    "coordinates": [
      35.4902018,
      33.8955146
    ]
  },
  {
    "name": "باربار سناك",
    "coordinates": [
      35.4953134,
      33.8947473
    ]
  },
  {
    "name": "أستاذ",
    "coordinates": [
      35.4930167,
      33.8852207
    ]
  },
  {
    "name": "النورس",
    "coordinates": [
      36.215928,
      33.999309
    ]
  },
  {
    "name": "المصطفى الحارة (ع)",
    "coordinates": [
      35.5050423,
      33.8569782
    ]
  },
  {
    "name": "أفران الصحة",
    "coordinates": [
      35.9914495,
      33.8632764
    ]
  },
  {
    "name": "مجموعة البضن",
    "coordinates": [
      35.825643,
      34.4478986
    ]
  },
  {
    "name": "فروج آلِ عبد الله",
    "coordinates": [
      35.5187107,
      33.8487663
    ]
  },
  {
    "name": "بيضون",
    "coordinates": [
      35.5187277,
      33.8489866
    ]
  },
  {
    "name": "مقل البغل",
    "coordinates": [
      36.2728806,
      34.5083827
    ]
  },
  {
    "name": "حرف البغل",
    "coordinates": [
      36.2789143,
      34.5197232
    ]
  },
  {
    "name": "وسترن يونيون",
    "coordinates": [
      36.007328,
      33.8503355
    ]
  },
  {
    "name": "هوا تشيكن",
    "coordinates": [
      35.571657,
      33.8551245
    ]
  },
  {
    "name": "ملحمة مار شربل",
    "coordinates": [
      35.5512525,
      33.876263
    ]
  },
  {
    "name": "الاعتماد المالي",
    "coordinates": [
      35.5323074,
      33.8613068
    ]
  },
  {
    "name": "شركة شعيا وعازار",
    "coordinates": [
      35.5642465,
      33.8884661
    ]
  },
  {
    "name": "مختبرات الدكتور نعمه",
    "coordinates": [
      35.5586191,
      33.8925258
    ]
  },
  {
    "name": "فصيلة برج حمود",
    "coordinates": [
      35.5428535,
      33.8913678
    ]
  },
  {
    "name": "سيل للأحذية جملة",
    "coordinates": [
      35.5050701,
      33.8511905
    ]
  },
  {
    "name": "بيتنا في بشعلة",
    "coordinates": [
      35.8221933,
      34.2018361
    ]
  },
  {
    "name": "جبنة وليام",
    "coordinates": [
      35.7114992,
      33.9764074
    ]
  },
  {
    "name": "سل الموسوي",
    "coordinates": [
      35.2175677,
      33.2651587
    ]
  },
  {
    "name": "مقهى أوك",
    "coordinates": [
      35.2176225,
      33.2650725
    ]
  },
  {
    "name": "صيدلية سماحة",
    "coordinates": [
      35.542243,
      33.8779486
    ]
  },
  {
    "name": "روت فورتي وان",
    "coordinates": [
      35.5324613,
      33.8165845
    ]
  },
  {
    "name": "مطعم دنون",
    "coordinates": [
      35.8374947,
      34.4387672
    ]
  },
  {
    "name": "مصرف",
    "coordinates": [
      35.7109513,
      33.9102399
    ]
  },
  {
    "name": "بلدية ضهور الشوير",
    "coordinates": [
      35.709083,
      33.9116713
    ]
  },
  {
    "name": "هاتف",
    "coordinates": [
      35.7102129,
      33.9135992
    ]
  },
  {
    "name": "مصرف",
    "coordinates": [
      35.709114,
      33.9123459
    ]
  },
  {
    "name": "بريد",
    "coordinates": [
      35.7101203,
      33.9134819
    ]
  },
  {
    "name": "سوزان",
    "coordinates": [
      35.6390679,
      34.048872
    ]
  },
  {
    "name": "الفنق",
    "coordinates": [
      35.6468801,
      34.0108465
    ]
  },
  {
    "name": "ديوان بيروت",
    "coordinates": [
      35.5210997,
      33.8922672
    ]
  },
  {
    "name": "بلاكين عاليه",
    "coordinates": [
      35.6035763,
      33.8081189
    ]
  },
  {
    "name": "راس الجبل عاليه",
    "coordinates": [
      35.5983833,
      33.7986443
    ]
  },
  {
    "name": "دجاج كنتاكي",
    "coordinates": [
      35.6083763,
      33.8121547
    ]
  },
  {
    "name": "ملحمة ومشاوي ومعجنات بعلبك",
    "coordinates": [
      35.4836073,
      33.8648499
    ]
  },
  {
    "name": "مستوصف وادي خالد - المحطة",
    "coordinates": [
      36.3785109,
      34.6304927
    ]
  },
  {
    "name": "عيادة الدكتور بري الاسعد",
    "coordinates": [
      36.3894353,
      34.6215041
    ]
  },
  {
    "name": "زيكو",
    "coordinates": [
      36.3865221,
      34.6246394
    ]
  },
  {
    "name": "الحسين",
    "coordinates": [
      36.3865526,
      34.624561
    ]
  },
  {
    "name": "مركز بلدية وادي خالد",
    "coordinates": [
      36.3865984,
      34.6246269
    ]
  },
  {
    "name": "رجم عيسى",
    "coordinates": [
      36.3856975,
      34.6235015
    ]
  },
  {
    "name": "مقهى الدرج",
    "coordinates": [
      36.3899755,
      34.622904
    ]
  },
  {
    "name": "مدرسة رجح خلف",
    "coordinates": [
      36.3882808,
      34.6228566
    ]
  },
  {
    "name": "ياسين",
    "coordinates": [
      36.3865168,
      34.6274358
    ]
  },
  {
    "name": "الحجي",
    "coordinates": [
      36.3871642,
      34.6240268
    ]
  },
  {
    "name": "يوسف",
    "coordinates": [
      36.3868324,
      34.624438
    ]
  },
  {
    "name": "الأسعد",
    "coordinates": [
      36.3891532,
      34.6231025
    ]
  },
  {
    "name": "ثانوية وادي خالد الرسمية",
    "coordinates": [
      36.3893785,
      34.6212148
    ]
  },
  {
    "name": "عيادة الدكتور رامي الاسعد",
    "coordinates": [
      36.388867,
      34.6233328
    ]
  },
  {
    "name": "صالون رائد",
    "coordinates": [
      36.3858659,
      34.625346
    ]
  },
  {
    "name": "شلالات نبع مرشد",
    "coordinates": [
      35.625,
      33.6537895
    ]
  },
  {
    "name": "مكتبة حليم",
    "coordinates": [
      35.6035188,
      33.9360865
    ]
  },
  {
    "name": "عبده ألمانيا",
    "coordinates": [
      35.5872473,
      33.9175329
    ]
  },
  {
    "name": "موسى",
    "coordinates": [
      36.3620091,
      34.6415555
    ]
  },
  {
    "name": "حسون للسيارات",
    "coordinates": [
      36.3621551,
      34.6412847
    ]
  },
  {
    "name": "بكار تشيكن",
    "coordinates": [
      36.3467782,
      34.6609365
    ]
  },
  {
    "name": "سوبر ماركت الارز",
    "coordinates": [
      35.7385675,
      34.3237379
    ]
  },
  {
    "name": "استراحة ابو نبيل فرن",
    "coordinates": [
      35.8830426,
      34.2604449
    ]
  },
  {
    "name": "مطعم ابو جوزف",
    "coordinates": [
      35.9554702,
      34.2547515
    ]
  },
  {
    "name": "مطعم غرين لاند",
    "coordinates": [
      35.9884797,
      34.2474025
    ]
  },
  {
    "name": "مسعد",
    "coordinates": [
      35.6489922,
      34.1247169
    ]
  },
  {
    "name": "طبلية مسعد",
    "coordinates": [
      35.6494655,
      34.0097898
    ]
  },
  {
    "name": "النجوم",
    "coordinates": [
      35.5506385,
      33.7578744
    ]
  },
  {
    "name": "منزل وائل خداج",
    "coordinates": [
      35.5485125,
      33.7511062
    ]
  },
  {
    "name": "فلافل أبو سعود",
    "coordinates": [
      36.3748873,
      34.631038
    ]
  },
  {
    "name": "كافي تل التين",
    "coordinates": [
      36.3329271,
      34.6528917
    ]
  },
  {
    "name": "مجوهرات أبو عرب",
    "coordinates": [
      36.3457407,
      34.6602028
    ]
  },
  {
    "name": "روبرتو بيتزا",
    "coordinates": [
      35.5506477,
      33.878547
    ]
  },
  {
    "name": "بيبلوس",
    "coordinates": [
      36.2808287,
      34.5737081
    ]
  },
  {
    "name": "منزل جان مراد",
    "coordinates": [
      35.9042489,
      33.6374894
    ]
  },
  {
    "name": "بناية برباري وياغي منزل جان مراد",
    "coordinates": [
      35.5303499,
      33.832476
    ]
  },
  {
    "name": "حاجز حديد",
    "coordinates": [
      35.5272258,
      33.8342627
    ]
  },
  {
    "name": "برعشيت",
    "coordinates": [
      35.4416423,
      33.1808593
    ]
  },
  {
    "name": "ترابة سبلين",
    "coordinates": [
      35.4240697,
      33.6256419
    ]
  },
  {
    "name": "مستشفى سرحال",
    "coordinates": [
      35.6085047,
      33.9149893
    ]
  },
  {
    "name": "ودن بيكري",
    "coordinates": [
      35.6144538,
      33.9137205
    ]
  },
  {
    "name": "جلجامش",
    "coordinates": [
      35.6008792,
      33.9157149
    ]
  },
  {
    "name": "أبو هادي شقير",
    "coordinates": [
      35.4841839,
      33.8778789
    ]
  },
  {
    "name": "ستاربكس",
    "coordinates": [
      35.504397,
      33.900124
    ]
  },
  {
    "name": "مكتب التذاكر لموقع صور الأثري",
    "coordinates": [
      35.1974844,
      33.2699473
    ]
  },
  {
    "name": "كبتشينو غراند كافيه",
    "coordinates": [
      35.4988125,
      33.9033963
    ]
  },
  {
    "name": "شلال باتارا",
    "coordinates": [
      35.8705889,
      34.1737288
    ]
  },
  {
    "name": "جي إم",
    "coordinates": [
      35.6064337,
      33.9323278
    ]
  },
  {
    "name": "مطعم خان بغداد",
    "coordinates": [
      35.4832957,
      33.8939005
    ]
  },
  {
    "name": "الدرادوو",
    "coordinates": [
      35.4832682,
      33.8954138
    ]
  },
  {
    "name": "شقق مفروشة",
    "coordinates": [
      35.4800547,
      33.8946557
    ]
  },
  {
    "name": "محمية أرز الشوف الكبيرة",
    "coordinates": [
      35.7022716,
      33.7052726
    ]
  },
  {
    "name": "جميزة",
    "coordinates": [
      35.5246215,
      33.896427
    ]
  },
  {
    "name": "شقق مفروشة",
    "coordinates": [
      35.4799143,
      33.894658
    ]
  },
  {
    "name": "جمبزة",
    "coordinates": [
      35.5245463,
      33.8963869
    ]
  },
  {
    "name": "شوبرز",
    "coordinates": [
      35.4739635,
      33.8906811
    ]
  },
  {
    "name": "مغارة جعيتا",
    "coordinates": [
      35.6441077,
      33.9439055
    ]
  },
  {
    "name": "شارع نقابة الاطباء",
    "coordinates": [
      35.8269039,
      34.4449306
    ]
  },
  {
    "name": "عيادة سبليني",
    "coordinates": [
      35.5032947,
      33.8777804
    ]
  },
  {
    "name": "الأطباء الشوف",
    "coordinates": [
      35.601701,
      33.666844
    ]
  },
  {
    "name": "وردية حمراء",
    "coordinates": [
      35.4869302,
      33.896653
    ]
  },
  {
    "name": "سانتا ماريا برج حمود",
    "coordinates": [
      35.5425042,
      33.8912995
    ]
  },
  {
    "name": "صيدليّة ألما",
    "coordinates": [
      35.499787,
      33.89239
    ]
  },
  {
    "name": "رندا داود علي",
    "coordinates": [
      35.4092802,
      33.6213648
    ]
  },
  {
    "name": "سانت الي elie",
    "coordinates": [
      35.6157421,
      33.964941
    ]
  },
  {
    "name": "سوسن داود علي",
    "coordinates": [
      35.4077916,
      33.6227244
    ]
  },
  {
    "name": "سهام الظريف",
    "coordinates": [
      35.4941519,
      33.8922178
    ]
  },
  {
    "name": "وائل بعقلين",
    "coordinates": [
      35.5584169,
      33.6785758
    ]
  },
  {
    "name": "راما بعقلين",
    "coordinates": [
      35.5583749,
      33.6755653
    ]
  },
  {
    "name": "رولا برج ابي حيدر",
    "coordinates": [
      35.5022388,
      33.8849931
    ]
  },
  {
    "name": "علماوي برج ابي حيدر",
    "coordinates": [
      35.4993918,
      33.8835658
    ]
  },
  {
    "name": "صيدلية الوزان",
    "coordinates": [
      35.5023281,
      33.8726027
    ]
  },
  {
    "name": "امل خلده",
    "coordinates": [
      35.4814726,
      33.7877034
    ]
  },
  {
    "name": "فرح قريطم",
    "coordinates": [
      35.4775232,
      33.8898955
    ]
  },
  {
    "name": "عين المريسة",
    "coordinates": [
      35.4892609,
      33.8999011
    ]
  },
  {
    "name": "لوما طريق الجديده",
    "coordinates": [
      35.504724,
      33.8761177
    ]
  },
  {
    "name": "ماهر الناعمه",
    "coordinates": [
      35.4559427,
      33.7479414
    ]
  },
  {
    "name": "ابن رشد مسيطبه",
    "coordinates": [
      35.491254,
      33.8870698
    ]
  },
  {
    "name": "ديما داعوق",
    "coordinates": [
      35.4996112,
      33.8781757
    ]
  },
  {
    "name": "مكوك طريق الجديده",
    "coordinates": [
      35.503275,
      33.8775097
    ]
  },
  {
    "name": "سيتي شارع الحمرا",
    "coordinates": [
      35.4798287,
      33.896088
    ]
  },
  {
    "name": "جلول المزرعة",
    "coordinates": [
      35.4993938,
      33.880192
    ]
  },
  {
    "name": "رشى جدايل طريق الجديده",
    "coordinates": [
      35.5029576,
      33.8709215
    ]
  },
  {
    "name": "عماد عاليه",
    "coordinates": [
      35.608249,
      33.8070522
    ]
  },
  {
    "name": "نغم طريق الجديده",
    "coordinates": [
      35.4971622,
      33.8694556
    ]
  },
  {
    "name": "كليمونصو",
    "coordinates": [
      35.4933069,
      33.8990897
    ]
  },
  {
    "name": "المستقبل مزرعه",
    "coordinates": [
      35.5027718,
      33.882725
    ]
  },
  {
    "name": "الأطباء بقعاتا",
    "coordinates": [
      35.6017524,
      33.6668967
    ]
  },
  {
    "name": "عيتات عيتات",
    "coordinates": [
      35.5545239,
      33.7890148
    ]
  },
  {
    "name": "سانت جورج زوق مخايل",
    "coordinates": [
      35.6235371,
      33.9641992
    ]
  },
  {
    "name": "فاملي شحيم",
    "coordinates": [
      35.5037352,
      33.6315758
    ]
  },
  {
    "name": "الاخاء",
    "coordinates": [
      35.5474335,
      33.7561024
    ]
  },
  {
    "name": "فينيسيا",
    "coordinates": [
      35.4937055,
      33.901323
    ]
  },
  {
    "name": "شعار عيتاني الرملة البيضة",
    "coordinates": [
      35.4831742,
      33.8785495
    ]
  },
  {
    "name": "صيدلية شهاب",
    "coordinates": [
      35.5024125,
      33.8893223
    ]
  },
  {
    "name": "تي",
    "coordinates": [
      35.5055647,
      33.8855698
    ]
  },
  {
    "name": "تراست كركاس",
    "coordinates": [
      35.4737485,
      33.894407
    ]
  },
  {
    "name": "النجاح طريق الجديده",
    "coordinates": [
      35.5011885,
      33.8683177
    ]
  },
  {
    "name": "سانت ليا",
    "coordinates": [
      35.6199286,
      33.9587592
    ]
  },
  {
    "name": "سانت تيريز زوق مكايل",
    "coordinates": [
      35.6211103,
      33.9638546
    ]
  },
  {
    "name": "القصر",
    "coordinates": [
      35.479022,
      33.6423116
    ]
  },
  {
    "name": "صيدلية سوبركير",
    "coordinates": [
      35.5169748,
      33.8688261
    ]
  },
  {
    "name": "الأحمد",
    "coordinates": [
      35.5046439,
      33.6329666
    ]
  },
  {
    "name": "ابن رشد",
    "coordinates": [
      35.4912668,
      33.8868738
    ]
  },
  {
    "name": "صيدلية ربيفارم",
    "coordinates": [
      35.4935395,
      33.8954869
    ]
  },
  {
    "name": "فؤاد",
    "coordinates": [
      35.4764683,
      33.8892047
    ]
  },
  {
    "name": "منيمنه طريق الجديده",
    "coordinates": [
      35.4973631,
      33.8736614
    ]
  },
  {
    "name": "بيت",
    "coordinates": [
      35.958976,
      34.4897015
    ]
  },
  {
    "name": "سمرلاند",
    "coordinates": [
      35.4831401,
      33.8677208
    ]
  },
  {
    "name": "رأس بيروت",
    "coordinates": [
      35.4769231,
      33.8937604
    ]
  },
  {
    "name": "بشير كركون الدروز",
    "coordinates": [
      35.4923968,
      33.8900881
    ]
  },
  {
    "name": "ابن رشد مسيطبه",
    "coordinates": [
      35.4910383,
      33.8872532
    ]
  },
  {
    "name": "وردية شارع الحمرا",
    "coordinates": [
      35.4871417,
      33.8964385
    ]
  },
  {
    "name": "الوها",
    "coordinates": [
      35.503977,
      33.8835644
    ]
  },
  {
    "name": "الهلال مزرعه",
    "coordinates": [
      35.5051168,
      33.8784759
    ]
  },
  {
    "name": "جمال المزرعة",
    "coordinates": [
      35.4969973,
      33.8789722
    ]
  },
  {
    "name": "عبير برجا",
    "coordinates": [
      35.4318289,
      33.6524173
    ]
  },
  {
    "name": "صبرا صبرا",
    "coordinates": [
      35.503466,
      33.8666232
    ]
  },
  {
    "name": "نادر الجديدة رأس بيروت",
    "coordinates": [
      35.4796796,
      33.888645
    ]
  },
  {
    "name": "فارما لايف",
    "coordinates": [
      35.4970058,
      33.8777602
    ]
  },
  {
    "name": "صيدلية ميساء الصانع",
    "coordinates": [
      35.5035038,
      33.8736147
    ]
  },
  {
    "name": "شميطلي طريق الجديده",
    "coordinates": [
      35.5007425,
      33.8710236
    ]
  },
  {
    "name": "أنطونيو الدامور",
    "coordinates": [
      35.4543881,
      33.728541
    ]
  },
  {
    "name": "صيدلية جلول",
    "coordinates": [
      35.4995522,
      33.8798911
    ]
  },
  {
    "name": "الشعار الجديده",
    "coordinates": [
      35.4893878,
      33.8871996
    ]
  },
  {
    "name": "صيدلية فينيسيا عرمون",
    "coordinates": [
      35.4867617,
      33.7818657
    ]
  },
  {
    "name": "اورشيديا عانوت",
    "coordinates": [
      35.5192587,
      33.6266761
    ]
  },
  {
    "name": "ريما الجديدة",
    "coordinates": [
      35.4948745,
      33.8897059
    ]
  },
  {
    "name": "جبيل",
    "coordinates": [
      35.4977215,
      33.8884251
    ]
  },
  {
    "name": "سهام الظريف",
    "coordinates": [
      35.4942203,
      33.8922346
    ]
  },
  {
    "name": "المنار مسيطبه",
    "coordinates": [
      35.4938319,
      33.8868515
    ]
  },
  {
    "name": "بارتي اشرفيه",
    "coordinates": [
      35.5188118,
      33.8880888
    ]
  },
  {
    "name": "نانا طريق الجديده",
    "coordinates": [
      35.4968503,
      33.8709878
    ]
  },
  {
    "name": "ويل كير مسيطبه",
    "coordinates": [
      35.4910661,
      33.8722952
    ]
  },
  {
    "name": "سالم رأس بيروت",
    "coordinates": [
      35.4819059,
      33.8908167
    ]
  },
  {
    "name": "ضياء حاره الناعمه",
    "coordinates": [
      35.4554789,
      33.7424868
    ]
  },
  {
    "name": "دانا كيفون",
    "coordinates": [
      35.5623828,
      33.7850349
    ]
  },
  {
    "name": "عتريسي مسيطبه",
    "coordinates": [
      35.4909595,
      33.8911508
    ]
  },