[
  {
    "name": "عين المريسه",
    "coordinates": [
      35.48041105100003,
      33.901240002000065
    ]
  },
  {
    "name": "راس بيروت",
    "coordinates": [
      35.478594369000064,
      33.89193383000003
    ]
  },
  {
    "name": "مصيطبه",
    "coordinates": [
      35.489180128000044,
      33.88087759900003
    ]
  },
  {
    "name": "مينا الحصن",
    "coordinates": [
      35.49673801100005,
      33.898913296000046
    ]
  },
  {
    "name": "المزرعه",
    "coordinates": [
      35.505566773000055,
      33.874947279000025
    ]
  },
  {
    "name": "باشوره",
    "coordinates": [
      35.50412604100006,
      33.890068116000066
    ]
  },
  {
    "name": "زقاق البلاط",
    "coordinates": [
      35.49900808800004,
      33.892861663000076
    ]
  },
  {
    "name": "مرفا",
    "coordinates": [
      35.506888934000074,
      33.898799961000066
    ]
  },
  {
    "name": "صيفي",
    "coordinates": [
      35.50927197500005,
      33.89318418100004
    ]
  },
  {
    "name": "رميل",
    "coordinates": [
      35.523941225000044,
      33.89392963200004
    ]
  },
  {
    "name": "مدور",
    "coordinates": [
      35.52977513400003,
      33.90152863900005
    ]
  },
  {
    "name": "الاشرفيه",
    "coordinates": [
      35.52180867900006,
      33.88492245300006
    ]
  },
  {
    "name": "وسط بيروت",
    "coordinates": [
      35.50701816700007,
      33.90457389000005
    ]
  },
  {
    "name": "شياح",
    "coordinates": [
      35.49073818900007,
      33.85140549800008
    ]
  },
  {
    "name": "فرن الشباك",
    "coordinates": [
      35.526860603000046,
      33.871376858000076
    ]
  },
  {
    "name": "حاره حريك",
    "coordinates": [
      35.511808736000035,
      33.852121030000035
    ]
  },
  {
    "name": "ليلكي",
    "coordinates": [
      35.514819757000055,
      33.83214546700003
    ]
  },
  {
    "name": "برج البراجنه",
    "coordinates": [
      35.50527081200005,
      33.840534167000044
    ]
  },
  {
    "name": "تحويطه الغدير",
    "coordinates": [
      35.49451769500007,
      33.83005086400004
    ]
  },
  {
    "name": "بعبدا",
    "coordinates": [
      35.54582112600008,
      33.845484389000035
    ]
  },
  {
    "name": "حدث",
    "coordinates": [
      35.52693996800008,
      33.83737967500008
    ]
  },
  {
    "name": "بطشيه",
    "coordinates": [
      35.54225654500004,
      33.82582107800005
    ]
  },
  {
    "name": "مرداشه",
    "coordinates": [
      35.544257542000025,
      33.82244450200005
    ]
  },
  {
    "name": "لويزه",
    "coordinates": [
      35.56927357700005,
      33.83939009300008
    ]
  },
  {
    "name": "كفرشيما",
    "coordinates": [
      35.53439700800004,
      33.81551912000003
    ]
  },
  {
    "name": "وادي شحرور السفلي",
    "coordinates": [
      35.55438613900003,
      33.82235226700004
    ]
  },
  {
    "name": "وادي شحرور العليا",
    "coordinates": [
      35.56518265600005,
      33.81767554500004
    ]
  },
  {
    "name": "حاره الست",
    "coordinates": [
      35.56772663000004,
      33.825288467000064
    ]
  },
  {
    "name": "بسابا وادي الدلب",
    "coordinates": [
      35.53892841500004,
      33.80429387000004
    ]
  },
  {
    "name": "بعلشميه",
    "coordinates": [
      35.644368652000026,
      33.81650263800003
    ]
  },
  {
    "name": "عين موفق",
    "coordinates": [
      35.65390021200005,
      33.82163060200003
    ]
  },
  {
    "name": "رويسه البلوط",
    "coordinates": [
      35.64828645100005,
      33.82676012400003
    ]
  },
  {
    "name": "مزيرعه بعبدا",
    "coordinates": [
      35.65489091300003,
      33.83019466800005
    ]
  },
  {
    "name": "هلاليه",
    "coordinates": [
      35.639302712000074,
      33.83122868700008
    ]
  },
  {
    "name": "حاره حمزه",
    "coordinates": [
      35.66264344800004,
      33.820863959000064
    ]
  },
  {
    "name": "قتاله",
    "coordinates": [
      35.67458707800006,
      33.82364632900004
    ]
  },
  {
    "name": "راس الحرف",
    "coordinates": [
      35.67063974700005,
      33.81181939700008
    ]
  },
  {
    "name": "دير خونه",
    "coordinates": [
      35.66421318000005,
      33.83230898900007
    ]
  },
  {
    "name": "عباديه",
    "coordinates": [
      35.622855644000026,
      33.83169156200006
    ]
  },
  {
    "name": "قريه",
    "coordinates": [
      35.67948346800006,
      33.80781170400007
    ]
  },
  {
    "name": "شميسه",
    "coordinates": [
      35.68589448900008,
      33.82993985400003
    ]
  },
  {
    "name": "راس المتن",
    "coordinates": [
      35.65691319900003,
      33.84549887800006
    ]
  },
  {
    "name": "شويت",
    "coordinates": [
      35.605082553000045,
      33.82989565200006
    ]
  },
  {
    "name": "قبيع",
    "coordinates": [
      35.694554219000054,
      33.81269809100007
    ]
  },
  {
    "name": "قرطاده",
    "coordinates": [
      35.62435691200005,
      33.85977602500003
    ]
  },
  {
    "name": "قصيبه",
    "coordinates": [
      35.650536172000045,
      33.86518265300003
    ]
  },
  {
    "name": "دير الحرف",
    "coordinates": [
      35.69033871100004,
      33.84751403100006
    ]
  },
  {
    "name": "عاريا",
    "coordinates": [
      35.58789544000007,
      33.83201094900005
    ]
  },
  {
    "name": "زندوقه",
    "coordinates": [
      35.63635702700003,
      33.86884800100006
    ]
  },
  {
    "name": "كنيسه بعبدا",
    "coordinates": [
      35.665254281000045,
      33.86446050400008
    ]
  },
  {
    "name": "عربانيه",
    "coordinates": [
      35.67406539900003,
      33.87452720300007
    ]
  },
  {
    "name": "دليبه",
    "coordinates": [
      35.69086167700004,
      33.87901192600003
    ]
  },
  {
    "name": "صليما بعبدا",
    "coordinates": [
      35.69892095600005,
      33.872590040000034
    ]
  },
  {
    "name": "حاصبيا المتن",
    "coordinates": [
      35.72080470900005,
      33.87574391000004
    ]
  },
  {
    "name": "حمانا",
    "coordinates": [
      35.738651779000065,
      33.812857647000044
    ]
  },
  {
    "name": "القلعه",
    "coordinates": [
      35.72792295900007,
      33.83730553500004
    ]
  },
  {
    "name": "خلوات",
    "coordinates": [
      35.73553480800007,
      33.83998997700007
    ]
  },
  {
    "name": "شبانيه",
    "coordinates": [
      35.71349061400008,
      33.81528984000005
    ]
  },
  {
    "name": "خريبه بعبدا",
    "coordinates": [
      35.715406503000054,
      33.82525018100006
    ]
  },
  {
    "name": "بمريم",
    "coordinates": [
      35.71843681300004,
      33.83079469300003
    ]
  },
  {
    "name": "بتخناي",
    "coordinates": [
      35.71426926400005,
      33.84132373500006
    ]
  },
  {
    "name": "فالوغا",
    "coordinates": [
      35.766271148000044,
      33.82336598400008
    ]
  },
  {
    "name": "بتبيات",
    "coordinates": [
      35.698033536000025,
      33.83641458300008
    ]
  },
  {
    "name": "قرنايل",
    "coordinates": [
      35.72996983100006,
      33.856561860000056
    ]
  },
  {
    "name": "جوار الحوز",
    "coordinates": [
      35.75743254500003,
      33.85915314700003
    ]
  },
  {
    "name": "بزبدين",
    "coordinates": [
      35.73764382300004,
      33.87305378600007
    ]
  },
  {
    "name": "ارصون",
    "coordinates": [
      35.69303991700008,
      33.85796663700006
    ]
  },
  {
    "name": "كفرسلوان",
    "coordinates": [
      35.78510575400003,
      33.856029257000046
    ]
  },
  {
    "name": "ترشيش",
    "coordinates": [
      35.80865890700005,
      33.876826822000055
    ]
  },
  {
    "name": "جوره ارصون",
    "coordinates": [
      35.71027900800004,
      33.852326134000066
    ]
  },
  {
    "name": "برج حمود",
    "coordinates": [
      35.54335297700004,
      33.89346291100003
    ]
  },
  {
    "name": "سن الفيل",
    "coordinates": [
      35.53605951600008,
      33.87475425500003
    ]
  },
  {
    "name": "جديده المتن",
    "coordinates": [
      35.57147233300003,
      33.88956310700007
    ]
  },
  {
    "name": "بوشريه",
    "coordinates": [
      35.55937800500004,
      33.885283567000045
    ]
  },
  {
    "name": "مار روكز",
    "coordinates": [
      35.56086745300007,
      33.86798459800008
    ]
  },
  {
    "name": "دكوانه",
    "coordinates": [
      35.546955000000025,
      33.87619559900003
    ]
  },
  {
    "name": "مكلس",
    "coordinates": [
      35.55211397000005,
      33.86156575500007
    ]
  },
  {
    "name": "انطلياس",
    "coordinates": [
      35.58729658300007,
      33.91413262000003
    ]
  },
  {
    "name": "مزهر",
    "coordinates": [
      35.598140614000044,
      33.90857891500008
    ]
  },
  {
    "name": "جل الديب",
    "coordinates": [
      35.58141181900004,
      33.90646340300003
    ]
  },
  {
    "name": "نقاش",
    "coordinates": [
      35.59505522300003,
      33.92317708100006
    ]
  },
  {
    "name": "الوطي عماره شلهوب",
    "coordinates": [
      35.569513329000074,
      33.90000423400005
    ]
  },
  {
    "name": "الزلقا",
    "coordinates": [
      35.577757709000025,
      33.89867186600003
    ]
  },
  {
    "name": "بياقوت",
    "coordinates": [
      35.58582115400003,
      33.89407889700004
    ]
  },
  {
    "name": "مزرعه الحضيره",
    "coordinates": [
      35.607337862000065,
      33.93200892700003
    ]
  },
  {
    "name": "ضبيه",
    "coordinates": [
      35.58904400900008,
      33.935002686000075
    ]
  },
  {
    "name": "حاره البلان",
    "coordinates": [
      35.603536717000054,
      33.94017164600007
    ]
  },
  {
    "name": "مزرعه دير عوكر",
    "coordinates": [
      35.59882943200006,
      33.93420169800004
    ]
  },
  {
    "name": "منصوريه",
    "coordinates": [
      35.567897481000045,
      33.85441971000006
    ]
  },
  {
    "name": "ديشونيه",
    "coordinates": [
      35.576547307000055,
      33.846191487000056
    ]
  },
  {
    "name": "الفنار",
    "coordinates": [
      35.57458972400008,
      33.87859124500005
    ]
  },
  {
    "name": "عين سعاده",
    "coordinates": [
      35.58927374600006,
      33.86940456700006
    ]
  },
  {
    "name": "روميه المتن",
    "coordinates": [
      35.602357192000056,
      33.885368956000036
    ]
  },
  {
    "name": "بقنايا",
    "coordinates": [
      35.587824511000065,
      33.90157677800005
    ]
  },
  {
    "name": "مجذوب",
    "coordinates": [
      35.59600611400003,
      33.90032151400004
    ]
  },
  {
    "name": "بصاليم",
    "coordinates": [
      35.60829792100003,
      33.89951483400006
    ]
  },
  {
    "name": "نابيه",
    "coordinates": [
      35.62298875300007,
      33.90470394000005
    ]
  },
  {
    "name": "مطيلب",
    "coordinates": [
      35.61207630000007,
      33.92293996700005
    ]
  },
  {
    "name": "بيت الككو",
    "coordinates": [
      35.63706395200006,
      33.92421349800003
    ]
  },
  {
    "name": "قرنه شهوان",
    "coordinates": [
      35.63021960900005,
      33.91642195800006
    ]
  },
  {
    "name": "مزرعه بيت الشعار",
    "coordinates": [
      35.617791271000044,
      33.92874631600006
    ]
  },
  {
    "name": "ديك المحدي",
    "coordinates": [
      35.62005742900004,
      33.93311556800006
    ]
  },
  {
    "name": "ذوق الخراب",
    "coordinates": [
      35.598801362000074,
      33.94827582000005
    ]
  },
  {
    "name": "عين عار",
    "coordinates": [
      35.643032676000075,
      33.922421632000066
    ]
  },
  {
    "name": "مزرعه يشوع",
    "coordinates": [
      35.63305511900006,
      33.93052460000007
    ]
  },
  {
    "name": "دير طاميش",
    "coordinates": [
      35.61935196600007,
      33.94046621800004
    ]
  },
  {
    "name": "زكريت",
    "coordinates": [
      35.629924903000074,
      33.93865087300003
    ]
  },
  {
    "name": "دير مار عبدا المشمر",
    "coordinates": [
      35.62974990600003,
      33.944022578000045
    ]
  },
  {
    "name": "بكفيا",
    "coordinates": [
      35.693672013000025,
      33.91466514000007
    ]
  },
  {
    "name": "محيدثه المتن",
    "coordinates": [
      35.69729887900007,
      33.921018986000036
    ]
  },
  {
    "name": "وادي شاهين",
    "coordinates": [
      35.69367306500004,
      33.93145332300003
    ]
  },
  {
    "name": "عين القش",
    "coordinates": [
      35.701787694000075,
      33.924910444000034
    ]
  },
  {
    "name": "مار بطرس كرم التين",
    "coordinates": [
      35.68510844100007,
      33.93653401900008
    ]
  },
  {
    "name": "بيت شباب",
    "coordinates": [
      35.670046693000074,
      33.93021568700004
    ]
  },
  {
    "name": "بحرصاف",
    "coordinates": [
      35.667462353000076,
      33.912552505000065
    ]
  },
  {
    "name": "مياسه",
    "coordinates": [
      35.692884777000074,
      33.941167807000056
    ]
  },
  {
    "name": "عين الخروبه",
    "coordinates": [
      35.70178676100005,
      33.932703307000054
    ]
  },
  {
    "name": "حملايا",
    "coordinates": [
      35.708671957000035,
      33.941019349000044
    ]
  },
  {
    "name": "عين علق",
    "coordinates": [
      35.65803957400004,
      33.91886970500008
    ]
  },
  {
    "name": "عطشانه",
    "coordinates": [
      35.64906785000005,
      33.91182512000006
    ]
  },
  {
    "name": "شاويه",
    "coordinates": [
      35.65882675800003,
      33.93004932900004
    ]
  },
  {
    "name": "عين التفاحه",
    "coordinates": [
      35.72584112800007,
      33.93401794400006
    ]
  },
  {
    "name": "سفيله بكفيا",
    "coordinates": [
      35.69859419000005,
      33.94421317100006
    ]
  },
  {
    "name": "فريكه",
    "coordinates": [
      35.65970930200007,
      33.93713947300006
    ]
  },
  {
    "name": "ابو ميزان",
    "coordinates": [
      35.72240006800007,
      33.93938486400003
    ]
  },
  {
    "name": "دير شمرا",
    "coordinates": [
      35.71833418700004,
      33.94831275400003
    ]
  },
  {
    "name": "حبوس",
    "coordinates": [
      35.642640519000054,
      33.92791327500004
    ]
  },
  {
    "name": "جوار المتن",
    "coordinates": [
      35.73325726000007,
      33.930012383000076
    ]
  },
  {
    "name": "شرين",
    "coordinates": [
      35.732070960000044,
      33.93630634300007
    ]
  },
  {
    "name": "قرنه الحمرا",
    "coordinates": [
      35.64691883100005,
      33.93549282600003
    ]
  },
  {
    "name": "برمانا المتن",
    "coordinates": [
      35.62814373100008,
      33.88018197900004
    ]
  },
  {
    "name": "جوره البلوط",
    "coordinates": [
      35.630596206000064,
      33.89392967800006
    ]
  },
  {
    "name": "المسقي",
    "coordinates": [
      35.641387260000045,
      33.87813942300005
    ]
  },
  {
    "name": "عيون المتن",
    "coordinates": [
      35.657185035000055,
      33.88056111700007
    ]
  },
  {
    "name": "قنابه برمانا",
    "coordinates": [
      35.618189217000065,
      33.89242643100005
    ]
  },
  {
    "name": "مزكه",
    "coordinates": [
      35.64653795300006,
      33.894508805000044
    ]
  },
  {
    "name": "بعبدات",
    "coordinates": [
      35.67376782400004,
      33.88812299400007
    ]
  },
  {
    "name": "بيت مري",
    "coordinates": [
      35.59855414200007,
      33.85003391500004
    ]
  },
  {
    "name": "ضهر الصوان المتن",
    "coordinates": [
      35.66198759500003,
      33.90083871000007
    ]
  },
  {
    "name": "قنابه صليما",
    "coordinates": [
      35.69240878100004,
      33.88592065900008
    ]
  },
  {
    "name": "بسفرين",
    "coordinates": [
      35.706385573000034,
      33.884894200000076
    ]
  },
  {
    "name": "المتين",
    "coordinates": [
      35.81238991400005,
      33.925320889000034
    ]
  },
  {
    "name": "عين الزيتونه",
    "coordinates": [
      35.74203140800006,
      33.90557189200007
    ]
  },
  {
    "name": "مشيخا",
    "coordinates": [
      35.74469884800004,
      33.88490995600006
    ]
  },
  {
    "name": "خله المتين",
    "coordinates": [
      35.728130047000036,
      33.89560596700005
    ]
  },
  {
    "name": "بنابيل",
    "coordinates": [
      35.735755287000075,
      33.90087639800004
    ]
  },
  {
    "name": "عين الصفصاف المتن",
    "coordinates": [
      35.727171457000054,
      33.91188154500003
    ]
  },
  {
    "name": "وطي المروج",
    "coordinates": [
      35.73508601300006,
      33.908249494000074
    ]
  },
  {
    "name": "المروج",
    "coordinates": [
      35.75349654000007,
      33.909303446000024
    ]
  },
  {
    "name": "مرجبا",
    "coordinates": [
      35.762846627000044,
      33.91861477900005
    ]
  },
  {
    "name": "عين السنديانه",
    "coordinates": [
      35.728165309000076,
      33.90279639000005
    ]
  },
  {
    "name": "زرعون",
    "coordinates": [
      35.708700693000026,
      33.89755310900006
    ]
  },
  {
    "name": "القعقور",
    "coordinates": [
      35.71976289200006,
      33.89565959600003
    ]
  },
  {
    "name": "خنشاره",
    "coordinates": [
      35.738299175000066,
      33.91975485000006
    ]
  },
  {
    "name": "عينطوره المتن",
    "coordinates": [
      35.798907917000065,
      33.90306223500005
    ]
  },
  {
    "name": "شوير",
    "coordinates": [
      35.71633996200006,
      33.91022133700005
    ]
  },
  {
    "name": "بتغرين",
    "coordinates": [
      35.76054280300008,
      33.92816978900004
    ]
  },
  {
    "name": "دوار",
    "coordinates": [
      35.69875823800004,
      33.90204937100003
    ]
  },
  {
    "name": "شويا",
    "coordinates": [
      35.715298664000045,
      33.929891704000056
    ]
  },
  {
    "name": "عيرون",
    "coordinates": [
      35.70535074900005,
      33.90601553800008
    ]
  },
  {
    "name": "زغرين المتن",
    "coordinates": [
      35.71388883900005,
      33.921964125000045
    ]
  },
  {
    "name": "مجدل ترشيش",
    "coordinates": [
      35.80823881300006,
      33.892825060000064
    ]
  },
  {
    "name": "عين القبو",
    "coordinates": [
      35.767186415000026,
      33.93849283000003
    ]
  },
  {
    "name": "كفرعقاب",
    "coordinates": [
      35.74543614500004,
      33.94172661300007
    ]
  },
  {
    "name": "مار موسي الدوار",
    "coordinates": [
      35.68974693300004,
      33.90008893000004
    ]
  },
  {
    "name": "مشرح",
    "coordinates": [
      35.75620486300005,
      33.944239598000024
    ]
  },
  {
    "name": "وادي الكرم المتن",
    "coordinates": [
      35.75109833800008,
      33.95345533500006
    ]
  },
  {
    "name": "زبوغا",
    "coordinates": [
      35.735806927000056,
      33.95318016500005
    ]
  },
  {
    "name": "بسكنتا",
    "coordinates": [
      35.83384763500004,
      33.94577568300008
    ]
  },
  {
    "name": "كفرتيه",
    "coordinates": [
      35.76329032800004,
      33.95201307000008
    ]
  },
  {
    "name": "الدامور",
    "coordinates": [
      35.45253915100005,
      33.713387037000075
    ]
  },
  {
    "name": "ناعمه",
    "coordinates": [
      35.46252559900006,
      33.74556285500006
    ]
  },
  {
    "name": "مشرف",
    "coordinates": [
      35.477303937000045,
      33.70818350800005
    ]
  },
  {
    "name": "شحيم",
    "coordinates": [
      35.486197908000065,
      33.629752788000076
    ]
  },
  {
    "name": "مزبود",
    "coordinates": [
      35.47982157000007,
      33.60851754300006
    ]
  },
  {
    "name": "دلهون",
    "coordinates": [
      35.463693755000065,
      33.625597189000075
    ]
  },
  {
    "name": "شميس",
    "coordinates": [
      35.46093563000005,
      33.639664038000035
    ]
  },
  {
    "name": "داريا الشوف",
    "coordinates": [
      35.50896912500008,
      33.64723464800005
    ]
  },
  {
    "name": "كترمايا",
    "coordinates": [
      35.45315435500004,
      33.614953279000076
    ]
  },
  {
    "name": "معنيه",
    "coordinates": [
      35.44490070100005,
      33.63053551400003
    ]
  },
  {
    "name": "وادي ابو يوسف",
    "coordinates": [
      35.496139044000074,
      33.67875524200008
    ]
  },
  {
    "name": "عانوت",
    "coordinates": [
      35.51306867100004,
      33.625036117000036
    ]
  },
  {
    "name": "سبلين",
    "coordinates": [
      35.424838462000025,
      33.62393403400006
    ]
  },
  {
    "name": "البرجين",
    "coordinates": [
      35.48037813600007,
      33.65266449400008
    ]
  },
  {
    "name": "برجا",
    "coordinates": [
      35.43874723300007,
      33.645393882000064
    ]
  },
  {
    "name": "بكشتين",
    "coordinates": [
      35.49937131100006,
      33.66789979300006
    ]
  },
  {
    "name": "بعاصير",
    "coordinates": [
      35.446318708000035,
      33.66241751200005
    ]
  },
  {
    "name": "دبيه",
    "coordinates": [
      35.47011041400003,
      33.67844986700004
    ]
  },
  {
    "name": "بنواتي",
    "coordinates": [
      35.51436862400004,
      33.677527876000056
    ]
  },
  {
    "name": "جيه",
    "coordinates": [
      35.42220180900006,
      33.66622774700005
    ]
  },
  {
    "name": "جدرا",
    "coordinates": [
      35.409367118000034,
      33.63413187000003
    ]
  },
  {
    "name": "شمعرين",
    "coordinates": [
      35.504387518000044,
      33.67893032100005
    ]
  },
  {
    "name": "ضهر المغاره",
    "coordinates": [
      35.44791176000007,
      33.680302881000046
    ]
  },
  {
    "name": "علمان الشوف",
    "coordinates": [
      35.411588590000065,
      33.59143436900007
    ]
  },
  {
    "name": "جميليه",
    "coordinates": [
      35.42789690800004,
      33.598104017000026
    ]
  },
  {
    "name": "رميله",
    "coordinates": [
      35.395101029000045,
      33.59767582300003
    ]
  },
  {
    "name": "مجدلونا",
    "coordinates": [
      35.444135139000025,
      33.596938944000044
    ]
  },
  {
    "name": "وردانيه",
    "coordinates": [
      35.42502312400006,
      33.61163290600007
    ]
  },
  {
    "name": "جون",
    "coordinates": [
      35.45144924900006,
      33.58035717400003
    ]
  },
  {
    "name": "مغيريه الشوف",
    "coordinates": [
      35.45967668700007,
      33.60134398100007
    ]
  },
  {
    "name": "دير المخلص الشوف",
    "coordinates": [
      35.48548675400008,
      33.58120719000004
    ]
  },
  {
    "name": "قريعه",
    "coordinates": [
      35.48424718100006,
      33.595817176000025
    ]
  },
  {
    "name": "بكيفا",
    "coordinates": [
      35.49970895900003,
      33.589487819000055
    ]
  },
  {
    "name": "مزموره",
    "coordinates": [
      35.50915173200008,
      33.593629640000074
    ]
  },
  {
    "name": "مطله",
    "coordinates": [
      35.53970774600003,
      33.608715966000034
    ]
  },
  {
    "name": "مزرعه الضهر",
    "coordinates": [
      35.52819316500006,
      33.59346249400005
    ]
  },
  {
    "name": "خربه بسري",
    "coordinates": [
      35.52555222900003,
      33.58420646900004
    ]
  },
  {
    "name": "جليليه",
    "coordinates": [
      35.526964021000026,
      33.605307192000055
    ]
  },
  {
    "name": "زعروريه",
    "coordinates": [
      35.51451594100007,
      33.60935061400005
    ]
  },
  {
    "name": "بسابا",
    "coordinates": [
      35.55469366700004,
      33.60428756400006
    ]
  },
  {
    "name": "بيت الدين",
    "coordinates": [
      35.580766622000056,
      33.692104950000044
    ]
  },
  {
    "name": "دير القمر",
    "coordinates": [
      35.55914601300003,
      33.69689976900003
    ]
  },
  {
    "name": "كفر حمل",
    "coordinates": [
      35.56547032700007,
      33.70872436600007
    ]
  },
  {
    "name": "سمقانيه",
    "coordinates": [
      35.59131653400004,
      33.677260094000076
    ]
  },
  {
    "name": "كفرقطره",
    "coordinates": [
      35.58880702000005,
      33.710556455000074
    ]
  },
  {
    "name": "معاصر بيت الدين",
    "coordinates": [
      35.599042343000065,
      33.69726412500006
    ]
  },
  {
    "name": "بشتفين",
    "coordinates": [
      35.55127302100004,
      33.712423424000065
    ]
  },
  {
    "name": "كنيسه الشوف",
    "coordinates": [
      35.57518121500004,
      33.71944627900007
    ]
  },
  {
    "name": "عميق الشوف",
    "coordinates": [
      35.59088202700008,
      33.71969702000007
    ]
  },
  {
    "name": "دير كوشه",
    "coordinates": [
      35.565730889000065,
      33.71895339900004
    ]
  },
  {
    "name": "مزرعه الدوير",
    "coordinates": [
      35.60602178400006,
      33.70784869600004
    ]
  },
  {
    "name": "كفرفاقود",
    "coordinates": [
      35.53468913100005,
      33.70351358000005
    ]
  },
  {
    "name": "دير بابا",
    "coordinates": [
      35.51876202700004,
      33.699326334000034
    ]
  },
  {
    "name": "سرجبال",
    "coordinates": [
      35.50852598700004,
      33.68545231100006
    ]
  },
  {
    "name": "غابه جعفر",
    "coordinates": [
      35.527891399000055,
      33.69313320500004
    ]
  },
  {
    "name": "كفرحيم",
    "coordinates": [
      35.52492816000006,
      33.68801726500004
    ]
  },
  {
    "name": "وادي الدير",
    "coordinates": [
      35.522480331000054,
      33.68323439100004
    ]
  },
  {
    "name": "وادي الست",
    "coordinates": [
      35.62683498600006,
      33.714896897000074
    ]
  },
  {
    "name": "مجدل المعوش",
    "coordinates": [
      35.62059991800004,
      33.72568389600008
    ]
  },
  {
    "name": "دميت",
    "coordinates": [
      35.50102684600006,
      33.69490205500006
    ]
  },
  {
    "name": "فواره جعفر",
    "coordinates": [
      35.63827609700007,
      33.71265741000008
    ]
  },
  {
    "name": "بيره",
    "coordinates": [
      35.645359248000034,
      33.72175303200004
    ]
  },
  {
    "name": "شوريت",
    "coordinates": [
      35.63557065500004,
      33.74184292100006
    ]
  },
  {
    "name": "كفر حي",
    "coordinates": [
      35.63884180400004,
      33.74772657700004
    ]
  },
  {
    "name": "كفرنيس",
    "coordinates": [
      35.65015837100003,
      33.735084294000046
    ]
  },
  {
    "name": "بقيعه",
    "coordinates": [
      35.492467874000056,
      33.68592887700004
    ]
  },
  {
    "name": "بريح",
    "coordinates": [
      35.65720312700006,
      33.71620700500006
    ]
  },
  {
    "name": "مغيره",
    "coordinates": [
      35.48257915900007,
      33.695955998000045
    ]
  },
  {
    "name": "ورهانيه",
    "coordinates": [
      35.67505734300005,
      33.72133428800004
    ]
  },
  {
    "name": "فريديس الشوف",
    "coordinates": [
      35.70835732300003,
      33.71359535600004
    ]
  },
  {
    "name": "عين زحلتا",
    "coordinates": [
      35.724718833000054,
      33.73192739900003
    ]
  },
  {
    "name": "بعقلين",
    "coordinates": [
      35.54732891400005,
      33.66918002400007
    ]
  },
  {
    "name": "دير دوريت",
    "coordinates": [
      35.53395365800003,
      33.67845646600006
    ]
  },
  {
    "name": "عينبال",
    "coordinates": [
      35.55506909300004,
      33.65521586800003
    ]
  },
  {
    "name": "عترين",
    "coordinates": [
      35.573525965000044,
      33.66139441800004
    ]
  },
  {
    "name": "وادي بنحليه",
    "coordinates": [
      35.52410086900005,
      33.67855050600008
    ]
  },
  {
    "name": "غريفه",
    "coordinates": [
      35.551765215000046,
      33.63267667800005
    ]
  },
  {
    "name": "جاهليه",
    "coordinates": [
      35.51141449700003,
      33.66654081300004
    ]
  },
  {
    "name": "حصروت",
    "coordinates": [
      35.53466511800008,
      33.62580636600006
    ]
  },
  {
    "name": "مختاره",
    "coordinates": [
      35.614538147000076,
      33.65652361600007
    ]
  },
  {
    "name": "بطمه",
    "coordinates": [
      35.63650835000004,
      33.665159723000045
    ]
  },
  {
    "name": "عين قني",
    "coordinates": [
      35.613353981000046,
      33.64995649800005
    ]
  },
  {
    "name": "جديده الشوف",
    "coordinates": [
      35.60576704600004,
      33.66749677100006
    ]
  },
  {
    "name": "نيحا",
    "coordinates": [
      35.62603855900005,
      33.55881471300006
    ]
  },
  {
    "name": "عين وزين",
    "coordinates": [
      35.62293672100003,
      33.67904209200003
    ]
  },
  {
    "name": "بعدران",
    "coordinates": [
      35.62799534000004,
      33.63191289100007
    ]
  },
  {
    "name": "خريبه الشوف",
    "coordinates": [
      35.64785993900006,
      33.64563374800008
    ]
  },
  {
    "name": "عماطور",
    "coordinates": [
      35.60218661000005,
      33.622846082000024
    ]
  },
  {
    "name": "كحلونيه الشوف",
    "coordinates": [
      35.58917219800003,
      33.65183207700005
    ]
  },
  {
    "name": "حاره جندل",
    "coordinates": [
      35.613026052000066,
      33.62051920700003
    ]
  },
  {
    "name": "مزرعه",
    "coordinates": [
      35.58816643800003,
      33.60344315200007
    ]
  },
  {
    "name": "كفرنبرخ",
    "coordinates": [
      35.629498424000076,
      33.69993201800003
    ]
  },
  {
    "name": "مرستي",
    "coordinates": [
      35.65722906700006,
      33.62090961600006
    ]
  },
  {
    "name": "بتلون",
    "coordinates": [
      35.65351061400003,
      33.69230224100005
    ]
  },
  {
    "name": "معاصر الشوف",
    "coordinates": [
      35.67423181600003,
      33.662886900000046
    ]
  },
  {
    "name": "جباع",
    "coordinates": [
      35.63857014700005,
      33.60858521700004
    ]
  },
  {
    "name": "باتر",
    "coordinates": [
      35.60668157500004,
      33.59774158700003
    ]
  },
  {
    "name": "الباروك",
    "coordinates": [
      35.70336732000004,
      33.69655850200007
    ]
  },
  {
    "name": "بيقون",
    "coordinates": [
      35.58135533800004,
      33.61289460100005
    ]
  },
  {
    "name": "عمروسيه الشويفات",
    "coordinates": [
      35.50798754600004,
      33.821785429000045
    ]
  },
  {
    "name": "قبه الشويفات",
    "coordinates": [
      35.485269292000055,
      33.78950460000004
    ]
  },
  {
    "name": "الشويفات الامراء",
    "coordinates": [
      35.503118984000025,
      33.81075980900005
    ]
  },
  {
    "name": "دير قوبل",
    "coordinates": [
      35.514387800000065,
      33.79219274800005
    ]
  },
  {
    "name": "عرمون",
    "coordinates": [
      35.49883121800008,
      33.76942287000003
    ]
  },
  {
    "name": "عين درافيل",
    "coordinates": [
      35.497900678000065,
      33.75506805100002
    ]
  },
  {
    "name": "سرحمول",
    "coordinates": [
      35.52777047500007,
      33.77092732700004
    ]
  },
  {
    "name": "بعورته",
    "coordinates": [
      35.499385145000076,
      33.74061459600006
    ]
  },
  {
    "name": "بشامون",
    "coordinates": [
      35.51606121200007,
      33.78062753900008
    ]
  },
  {
    "name": "دقون",
    "coordinates": [
      35.50404642600006,
      33.72739608300003
    ]
  },
  {
    "name": "عين عنوب",
    "coordinates": [
      35.539250872000025,
      33.79236287900005
    ]
  },
  {
    "name": "بليبل",
    "coordinates": [
      35.54912621600005,
      33.808671779000065
    ]
  },
  {
    "name": "حومال",
    "coordinates": [
      35.55772367800006,
      33.810444747000076
    ]
  },
  {
    "name": "بدادون",
    "coordinates": [
      35.56809269100006,
      33.808593365000036
    ]
  },
  {
    "name": "بسوس",
    "coordinates": [
      35.57952803100005,
      33.814422801000035
    ]
  },
  {
    "name": "عاليه",
    "coordinates": [
      35.603906712000025,
      33.80589044200008
    ]
  },
  {
    "name": "الكحاله",
    "coordinates": [
      35.58652831300003,
      33.82095587600003
    ]
  },
  {
    "name": "قماطيه",
    "coordinates": [
      35.58134794800003,
      33.80157244000003
    ]
  },
  {
    "name": "عين الرمانه",
    "coordinates": [
      35.58711820900004,
      33.80387997300005
    ]
  },
  {
    "name": "بمكين",
    "coordinates": [
      35.56976799700004,
      33.79935732400003
    ]
  },
  {
    "name": "بخشتيه",
    "coordinates": [
      35.61983625600004,
      33.79857371700007
    ]
  },
  {
    "name": "الغابون",
    "coordinates": [
      35.592401206000034,
      33.78280628700003
    ]
  },
  {
    "name": "عين الجديده",
    "coordinates": [
      35.630213807000075,
      33.80703764300006
    ]
  },
  {
    "name": "بحوارا",
    "coordinates": [
      35.60353469800003,
      33.788343594000025
    ]
  },
  {
    "name": "عيتات",
    "coordinates": [
      35.55570523600005,
      33.79472591500007
    ]
  },
  {
    "name": "سوق الغرب",
    "coordinates": [
      35.57345183500007,
      33.78971412100003
    ]
  },
  {
    "name": "تعزانيه",
    "coordinates": [
      35.62355635100005,
      33.78499444100004
    ]
  },
  {
    "name": "رجمه",
    "coordinates": [
      35.615115084000024,
      33.78971452800005
    ]
  },
  {
    "name": "كيفون",
    "coordinates": [
      35.56411249800004,
      33.78056840200003
    ]
  },
  {
    "name": "شملان",
    "coordinates": [
      35.54832610500006,
      33.77925213900005
    ]
  },
  {
    "name": "كفرعميه",
    "coordinates": [
      35.59336783200007,
      33.769385758000055
    ]
  },
  {
    "name": "بيصور",
    "coordinates": [
      35.57845501500003,
      33.775453705000075
    ]
  },
  {
    "name": "دوير الرمان",
    "coordinates": [
      35.58182027700008,
      33.755277627000055
    ]
  },
  {
    "name": "رويسه النعمان",
    "coordinates": [
      35.60328275300003,
      33.753619678000064
    ]
  },
  {
    "name": "مجدليا",
    "coordinates": [
      35.57372621900004,
      33.75871797700006
    ]
  },
  {
    "name": "عيناب",
    "coordinates": [
      35.545793923000076,
      33.76557282600004
    ]
  },
  {
    "name": "شرتون",
    "coordinates": [
      35.587727305000044,
      33.75074238800005
    ]
  },
  {
    "name": "بو زريده",
    "coordinates": [
      35.578035140000054,
      33.74696725600006
    ]
  },
  {
    "name": "دفون",
    "coordinates": [
      35.55788976600007,
      33.747580708000044
    ]
  },
  {
    "name": "رشميا",
    "coordinates": [
      35.60604725700006,
      33.73848232900008
    ]
  },
  {
    "name": "عين تراز",
    "coordinates": [
      35.58206979700003,
      33.733882032000054
    ]
  },
  {
    "name": "سلفايا",
    "coordinates": [
      35.56980613200005,
      33.73344532100003
    ]
  },
  {
    "name": "البساتين",
    "coordinates": [
      35.53285944500004,
      33.757045634000065
    ]
  },
  {
    "name": "رمحالا",
    "coordinates": [
      35.555712622000044,
      33.739664798000035
    ]
  },
  {
    "name": "البينه",
    "coordinates": [
      35.55018072000007,
      33.73200241100005
    ]
  },
  {
    "name": "عين كسور",
    "coordinates": [
      35.53510327600003,
      33.746318975000065
    ]
  },
  {
    "name": "جسر القاضي",
    "coordinates": [
      35.56131583500007,
      33.72600597200005
    ]
  },
  {
    "name": "عبيه",
    "coordinates": [
      35.52411949300006,
      33.738451988000065
    ]
  },
  {
    "name": "كفرمتي",
    "coordinates": [
      35.530897337000056,
      33.72008404800005
    ]
  },
  {
    "name": "بحمدون المحطه",
    "coordinates": [
      35.66029434200004,
      33.80628827800007
    ]
  },
  {
    "name": "بحمدون الضيعه",
    "coordinates": [
      35.64800718400005,
      33.79789355100007
    ]
  },
  {
    "name": "شانيه",
    "coordinates": [
      35.660563108000076,
      33.78711681000004
    ]
  },
  {
    "name": "بطلون",
    "coordinates": [
      35.63406909400004,
      33.791015437000055
    ]
  },
  {
    "name": "مجدل بعنا",
    "coordinates": [
      35.67314193400006,
      33.783423130000074
    ]
  },
  {
    "name": "صوفر",
    "coordinates": [
      35.69540596300004,
      33.80079157800003
    ]
  },
  {
    "name": "عين الحلزون",
    "coordinates": [
      35.64905482900008,
      33.77120480100007
    ]
  },
  {
    "name": "بدغان",
    "coordinates": [
      35.67054004700003,
      33.767235980000066
    ]
  },
  {
    "name": "حمص وحمي",
    "coordinates": [
      35.65230988800005,
      33.76869404300004
    ]
  },
  {
    "name": "منصوريه بحمدون",
    "coordinates": [
      35.61119453200007,
      33.779115715000046
    ]
  },
  {
    "name": "مشاقتي",
    "coordinates": [
      35.70468845000005,
      33.75818699000007
    ]
  },
  {
    "name": "شارون",
    "coordinates": [
      35.69670485100005,
      33.780362841000056
    ]
  },
  {
    "name": "بتاتر",
    "coordinates": [
      35.626347846000044,
      33.765441116000034
    ]
  },
  {
    "name": "اغميد",
    "coordinates": [
      35.69391537900003,
      33.75947811900005
    ]
  },
  {
    "name": "العزونيه",
    "coordinates": [
      35.708815954000045,
      33.77903471800005
    ]
  },
  {
    "name": "مشرفه",
    "coordinates": [
      35.658720972000026,
      33.759689009000056
    ]
  },
  {
    "name": "حبرمون",
    "coordinates": [
      35.64588759700007,
      33.75842528100003
    ]
  },
  {
    "name": "بسرين",
    "coordinates": [
      35.639555836000056,
      33.75647537900005
    ]
  },
  {
    "name": "رمليه",
    "coordinates": [
      35.65710960000007,
      33.74588800400005
    ]
  },
  {
    "name": "معصريتي",
    "coordinates": [
      35.63369479900007,
      33.74932321000006
    ]
  },
  {
    "name": "مزرعه النهر",
    "coordinates": [
      35.64361892200003,
      33.75197729300004
    ]
  },
  {
    "name": "عين داره",
    "coordinates": [
      35.75836732600004,
      33.791170813000065
    ]
  },
  {
    "name": "مريجات عاليه",
    "coordinates": [
      35.676510681000025,
      33.74427718900006
    ]
  },
  {
    "name": "بمهريه",
    "coordinates": [
      35.75411082100004,
      33.757105472000035
    ]
  },
  {
    "name": "صربا",
    "coordinates": [
      35.62142034200008,
      33.98019629000004
    ]
  },
  {
    "name": "ذوق مكايل",
    "coordinates": [
      35.618086101000074,
      33.96915835200008
    ]
  },
  {
    "name": "جونيه",
    "coordinates": [
      35.63485519500006,
      33.97630180500005
    ]
  },
  {
    "name": "ذوق مصبح",
    "coordinates": [
      35.61285030800008,
      33.95677468300005
    ]
  },
  {
    "name": "حاره صخر",
    "coordinates": [
      35.64326104400004,
      33.99037171400005
    ]
  },
  {
    "name": "ساحل علما",
    "coordinates": [
      35.65266658200005,
      33.99529259800005
    ]
  },
  {
    "name": "وطي سلام",
    "coordinates": [
      35.62674676300003,
      34.022434014000055
    ]
  },
  {
    "name": "كفر ياسين",
    "coordinates": [
      35.63503694700006,
      34.020111213000064
    ]
  },
  {
    "name": "طبرجا",
    "coordinates": [
      35.63557407400003,
      34.03021356900007
    ]
  },
  {
    "name": "ادما والدفنه",
    "coordinates": [
      35.648048380000034,
      34.02354737700006
    ]
  },
  {
    "name": "صفرا كسروان",
    "coordinates": [
      35.631583490000025,
      34.037807850000036
    ]
  },
  {
    "name": "بوار",
    "coordinates": [
      35.644557415000065,
      34.04516916000006
    ]
  },
  {
    "name": "عقيبه",
    "coordinates": [
      35.64812903100005,
      34.05210650200007
    ]
  },
  {
    "name": "بقاق الدين",
    "coordinates": [
      35.64908979300003,
      34.057672903000025
    ]
  },
  {
    "name": "زاير",
    "coordinates": [
      35.66908836400006,
      34.075223650000055
    ]
  },
  {
    "name": "عجلتون",
    "coordinates": [
      35.68548861200003,
      33.962998810000045
    ]
  },
  {
    "name": "بلونه",
    "coordinates": [
      35.67014430900008,
      33.95016307800006
    ]
  },
  {
    "name": "سهيله",
    "coordinates": [
      35.660330104000025,
      33.960958868000034
    ]
  },
  {
    "name": "داريا كسروان",
    "coordinates": [
      35.69840314500004,
      33.95320254500007
    ]
  },
  {
    "name": "عين الريحان",
    "coordinates": [
      35.64801330000006,
      33.963500418000024
    ]
  },
  {
    "name": "جعيتا",
    "coordinates": [
      35.64625175000003,
      33.94831149400005
    ]
  },
  {
    "name": "عينطوره",
    "coordinates": [
      35.63552798100005,
      33.95875274400004
    ]
  },
  {
    "name": "مزرعه الراس",
    "coordinates": [
      35.63039860400005,
      33.952397217000055
    ]
  },
  {
    "name": "غزير",
    "coordinates": [
      35.66368004800006,
      34.01606401400005
    ]
  },
  {
    "name": "فتقا",
    "coordinates": [
      35.66664935800003,
      34.03568116200006
    ]
  },
  {
    "name": "شننعير",
    "coordinates": [
      35.667547322000075,
      34.00501461600004
    ]
  },
  {
    "name": "جديده غزير",
    "coordinates": [
      35.690282754000066,
      34.01900839600006
    ]
  },
  {
    "name": "غوسطا",
    "coordinates": [
      35.67654474300008,
      33.980099737000046
    ]
  },
  {
    "name": "معراب",
    "coordinates": [
      35.683498186000065,
      33.99915007800007
    ]
  },
  {
    "name": "دلبتا",
    "coordinates": [
      35.690090378000036,
      34.00804360500007
    ]
  },
  {
    "name": "بطحا",
    "coordinates": [
      35.661289741000076,
      33.987555970000074
    ]
  },
  {
    "name": "عرمون كسروان",
    "coordinates": [
      35.69987383600005,
      34.01885317000006
    ]
  },
  {
    "name": "الكفور",
    "coordinates": [
      35.68821923300004,
      34.03304020600007
    ]
  },
  {
    "name": "غدراس",
    "coordinates": [
      35.68351695600006,
      34.04804124100008
    ]
  },
  {
    "name": "هرهريا",
    "coordinates": [
      35.70350487700006,
      34.02867289200003
    ]
  },
  {
    "name": "دير بقلوش",
    "coordinates": [
      35.65858784100004,
      33.99053077000008
    ]
  },
  {
    "name": "بزمار",
    "coordinates": [
      35.684428524000054,
      33.986864927000056
    ]
  },
  {
    "name": "حريصا",
    "coordinates": [
      35.65150348000003,
      33.98230139200007
    ]
  },
  {
    "name": "نموره",
    "coordinates": [
      35.67191853300005,
      34.05279095800006
    ]
  },
  {
    "name": "غينه",
    "coordinates": [
      35.70738893200007,
      34.039706737000074
    ]
  },
  {
    "name": "حصين",
    "coordinates": [
      35.71120371400008,
      34.04968073600003
    ]
  },
  {
    "name": "درعون",
    "coordinates": [
      35.65492446500008,
      33.974995731000035
    ]
  },
  {
    "name": "حياطه",
    "coordinates": [
      35.72023290900006,
      34.02392751100007
    ]
  },
  {
    "name": "شحتول",
    "coordinates": [
      35.72651836800003,
      34.03416451500004
    ]
  },
  {
    "name": "زعيتره",
    "coordinates": [
      35.697511666000025,
      34.06969350400004
    ]
  },
  {
    "name": "جوره الترمس",
    "coordinates": [
      35.71774442900005,
      34.045384297000055
    ]
  },
  {
    "name": "المعيصره",
    "coordinates": [
      35.67491702800004,
      34.069284683000035
    ]
  },
  {
    "name": "جوره مهاد",
    "coordinates": [
      35.73699486400005,
      34.03769710700004
    ]
  },
  {
    "name": "عذره والعذر",
    "coordinates": [
      35.70449912300006,
      34.06254199500006
    ]
  },
  {
    "name": "غباله",
    "coordinates": [
      35.72629675300004,
      34.05491447900005
    ]
  },
  {
    "name": "جوره بدران",
    "coordinates": [
      35.71581707000007,
      34.063505865000025
    ]
  },
  {
    "name": "مراديه",
    "coordinates": [
      35.70917772100006,
      34.07230857800005
    ]
  },
  {
    "name": "بزحل",
    "coordinates": [
      35.69730775000005,
      34.079918976000044
    ]
  },
  {
    "name": "نهر الدهب",
    "coordinates": [
      35.75522837400007,
      34.05464069000004
    ]
  },
  {
    "name": "يحشوش",
    "coordinates": [
      35.73914687600006,
      34.06871612800006
    ]
  },
  {
    "name": "زيتون",
    "coordinates": [
      35.68586404000007,
      34.06230186500005
    ]
  },
  {
    "name": "اغبه",
    "coordinates": [
      35.71049798000007,
      34.01389347500003
    ]
  },
  {
    "name": "ريفون",
    "coordinates": [
      35.703147854000065,
      33.97565913700004
    ]
  },
  {
    "name": "قليعات كسروان",
    "coordinates": [
      35.716751679000026,
      33.96792787500004
    ]
  },
  {
    "name": "مراح المير",
    "coordinates": [
      35.700606693000054,
      33.962018440000065
    ]
  },
  {
    "name": "عشقوت",
    "coordinates": [
      35.707336249000036,
      33.99193732100008
    ]
  },
  {
    "name": "فيطرون",
    "coordinates": [
      35.74208594100003,
      33.99487200100003
    ]
  },
  {
    "name": "بقعاته عشقوت",
    "coordinates": [
      35.73312161600006,
      34.00609125100004
    ]
  },
  {
    "name": "رعشين",
    "coordinates": [
      35.72510981600004,
      34.013232850000065
    ]
  },
  {
    "name": "كفر دبيان",
    "coordinates": [
      35.78676489800006,
      33.995701756000074
    ]
  },
  {
    "name": "بقعاته كنعان",
    "coordinates": [
      35.761536926000076,
      33.96454838500006
    ]
  },
  {
    "name": "دير زرعيا",
    "coordinates": [
      35.746549594000044,
      33.963302558000066
    ]
  },
  {
    "name": "بقعتوتا",
    "coordinates": [
      35.782411729000046,
      33.97371184100007
    ]
  },
  {
    "name": "وطي الجوز",
    "coordinates": [
      35.754078356000036,
      34.02769632600007
    ]
  },
  {
    "name": "ميروبا",
    "coordinates": [
      35.77718944800006,
      34.029996349000044
    ]
  },
  {
    "name": "عين الدلبه",
    "coordinates": [
      35.76632390000003,
      34.02896160600005
    ]
  },
  {
    "name": "المغاير",
    "coordinates": [
      35.77089048700003,
      34.03947618900003
    ]
  },
  {
    "name": "حراجل",
    "coordinates": [
      35.804113416000064,
      34.03102590200007
    ]
  },
  {
    "name": "فاريا",
    "coordinates": [
      35.824478474000045,
      34.01371380000006
    ]
  },
  {
    "name": "شوان",
    "coordinates": [
      35.775359071000025,
      34.07345250100008
    ]
  },
  {
    "name": "مشاع كفر ذبيان",
    "coordinates": [
      35.86736086600007,
      33.98115163500006
    ]
  },
  {
    "name": "مشاع فاريا",
    "coordinates": [
      35.848516489000076,
      34.03809542700003
    ]
  },
  {
    "name": "مشاع الفتوح",
    "coordinates": [
      35.92518935100003,
      34.02866450300007
    ]
  },
  {
    "name": "جبيل",
    "coordinates": [
      35.651156943000046,
      34.122692347000054
    ]
  },
  {
    "name": "مستيتا",
    "coordinates": [
      35.65703410200007,
      34.10458628300006
    ]
  },
  {
    "name": "قرطبون",
    "coordinates": [
      35.65672800200008,
      34.11141437600003
    ]
  },
  {
    "name": "بلاط",
    "coordinates": [
      35.678810515000066,
      34.109239323000054
    ]
  },
  {
    "name": "اده",
    "coordinates": [
      35.667869401000075,
      34.139562296000065
    ]
  },
  {
    "name": "عمشيت",
    "coordinates": [
      35.64229355100008,
      34.146175035000056
    ]
  },
  {
    "name": "حالات",
    "coordinates": [
      35.66525210100008,
      34.08794678700008
    ]
  },
  {
    "name": "حصرايل",
    "coordinates": [
      35.65761478500008,
      34.16321511600006
    ]
  },
  {
    "name": "ريحانه",
    "coordinates": [
      35.63716857400004,
      34.16590077700005
    ]
  },
  {
    "name": "جدايل",
    "coordinates": [
      35.64477210600006,
      34.162564332000045
    ]
  },
  {
    "name": "نهر ابراهيم",
    "coordinates": [
      35.64954034900006,
      34.067674683000064
    ]
  },
  {
    "name": "المنصف",
    "coordinates": [
      35.642622706000054,
      34.17938566000004
    ]
  },
  {
    "name": "برباره",
    "coordinates": [
      35.644657438000024,
      34.19455624100004
    ]
  },
  {
    "name": "كفر كده",
    "coordinates": [
      35.654598822000025,
      34.200673179000034
    ]
  },
  {
    "name": "اهمج",
    "coordinates": [
      35.816239762000066,
      34.12906944100007
    ]
  },
  {
    "name": "علمات الشماليه",
    "coordinates": [
      35.78752906900007,
      34.11001417700004
    ]
  },
  {
    "name": "مزرعه المعادن",
    "coordinates": [
      35.79637540700003,
      34.116478631000064
    ]
  },
  {
    "name": "حصنا",
    "coordinates": [
      35.80717141400004,
      34.105279721000045
    ]
  },
  {
    "name": "طورزيا",
    "coordinates": [
      35.75543976200004,
      34.10875710600004
    ]
  },
  {
    "name": "فرحت",
    "coordinates": [
      35.761008900000036,
      34.10134835300005
    ]
  },
  {
    "name": "مشمش جبيل",
    "coordinates": [
      35.77119135200007,
      34.14167556700005
    ]
  },
  {
    "name": "عاليتا",
    "coordinates": [
      35.69114035300004,
      34.09101912600005
    ]
  },
  {
    "name": "صوانه",
    "coordinates": [
      35.771444003000056,
      34.09504314700007
    ]
  },
  {
    "name": "عين الدلبه جبيل",
    "coordinates": [
      35.76149528800005,
      34.09083567400006
    ]
  },
  {
    "name": "فرات",
    "coordinates": [
      35.78975001200007,
      34.08666771000003
    ]
  },
  {
    "name": "كفر بعال",
    "coordinates": [
      35.74908192700008,
      34.11385811800005
    ]
  },
  {
    "name": "حجولا",
    "coordinates": [
      35.742975356000045,
      34.13162533600007
    ]
  },
  {
    "name": "عين جرين",
    "coordinates": [
      35.76693454400004,
      34.08412538500005
    ]
  },
  {
    "name": "حصون",
    "coordinates": [
      35.739110639000046,
      34.09390500300003
    ]
  },
  {
    "name": "مشان",
    "coordinates": [
      35.74875932500004,
      34.08126186000004
    ]
  },
  {
    "name": "لحفد",
    "coordinates": [
      35.768794754000055,
      34.16496793400006
    ]
  },
  {
    "name": "هابيل",
    "coordinates": [
      35.73952422200006,
      34.15108692600006
    ]
  },
  {
    "name": "جوره القطين",
    "coordinates": [
      35.73074044100008,
      34.102973243000065
    ]
  },
  {
    "name": "بركه حجولا",
    "coordinates": [
      35.72646311300008,
      34.14575050000008
    ]
  },
  {
    "name": "ادونيس",
    "coordinates": [
      35.73014943800007,
      34.08102599500006
    ]
  },
  {
    "name": "راس اسطا",
    "coordinates": [
      35.72678198400007,
      34.11721307600004
    ]
  },
  {
    "name": "بشتليدا",
    "coordinates": [
      35.71443338200004,
      34.13029359900003
    ]
  },
  {
    "name": "بشللي",
    "coordinates": [
      35.711794300000065,
      34.10340941900006
    ]
  },
  {
    "name": "زبدين",
    "coordinates": [
      35.70890928400007,
      34.09507439200007
    ]
  },
  {
    "name": "حقل",
    "coordinates": [
      35.74507304900004,
      34.16770987500007
    ]
  },
  {
    "name": "خاربه جبيل",
    "coordinates": [
      35.74636264500003,
      34.178052756000056
    ]
  },
  {
    "name": "قطاره",
    "coordinates": [
      35.80564442800005,
      34.178029544000026
    ]
  },
  {
    "name": "بريج",
    "coordinates": [
      35.70302833400007,
      34.11867216600007
    ]
  },
  {
    "name": "سربين",
    "coordinates": [
      35.71025269900008,
      34.109900098000026
    ]
  },
  {
    "name": "عبيدات",
    "coordinates": [
      35.727585229000056,
      34.16343372800003
    ]
  },
  {
    "name": "ميفوق",
    "coordinates": [
      35.772932870000034,
      34.184330439000064
    ]
  },
  {
    "name": "بحديدات",
    "coordinates": [
      35.70956029100006,
      34.148378414000035
    ]
  },
  {
    "name": "الراموط",
    "coordinates": [
      35.71200068100006,
      34.16612240500007
    ]
  },
  {
    "name": "ساقيه الخيط",
    "coordinates": [
      35.71494691700008,
      34.161813030000076
    ]
  },
  {
    "name": "كفر قواص",
    "coordinates": [
      35.700223582000035,
      34.12422509100003
    ]
  },
  {
    "name": "فتري",
    "coordinates": [
      35.70865626300008,
      34.08612754300003
    ]
  },
  {
    "name": "كفون",
    "coordinates": [
      35.71301555500003,
      34.155558668000026
    ]
  },
  {
    "name": "بنتاعل",
    "coordinates": [
      35.69760123300006,
      34.14081938500004
    ]
  },
  {
    "name": "بيت حباق",
    "coordinates": [
      35.706859766000036,
      34.16237955500003
    ]
  },
  {
    "name": "كفر الفتوح",
    "coordinates": [
      35.69483013800004,
      34.15315618200003
    ]
  },
  {
    "name": "جليسه",
    "coordinates": [
      35.69502540900004,
      34.11372742400005
    ]
  },
  {
    "name": "بجه",
    "coordinates": [
      35.71744057600006,
      34.18241021500006
    ]
  },
  {
    "name": "غلبون",
    "coordinates": [
      35.70147049700006,
      34.17460012500004
    ]
  },
  {
    "name": "شامات",
    "coordinates": [
      35.69759845400006,
      34.166015628000025
    ]
  },
  {
    "name": "حبالين",
    "coordinates": [
      35.68438138600004,
      34.158911440000054
    ]
  },
  {
    "name": "بمهرين",
    "coordinates": [
      35.679737353000064,
      34.122594380000066
    ]
  },
  {
    "name": "حبوب",
    "coordinates": [
      35.688467667000054,
      34.12700528700003
    ]
  },
  {
    "name": "حصارات",
    "coordinates": [
      35.68269169200005,
      34.16804093600007
    ]
  },
  {
    "name": "كفر مسحون",
    "coordinates": [
      35.67869771800002,
      34.14837648800005
    ]
  },
  {
    "name": "عين كفاع",
    "coordinates": [
      35.69794226000005,
      34.18792472600006
    ]
  },
  {
    "name": "غرفين",
    "coordinates": [
      35.66434246000006,
      34.15439265300006
    ]
  },
  {
    "name": "معاد",
    "coordinates": [
      35.68140682200004,
      34.192113636000045
    ]
  },
  {
    "name": "غرزوز",
    "coordinates": [
      35.67097529500006,
      34.17905684800007
    ]
  },
  {
    "name": "شيخان",
    "coordinates": [
      35.65828455700006,
      34.17337651500003
    ]
  },
  {
    "name": "شموت",
    "coordinates": [
      35.66799350800005,
      34.19760035100006
    ]
  },
  {
    "name": "بخعاز",
    "coordinates": [
      35.661782378000055,
      34.18828177800003
    ]
  },
  {
    "name": "فغال",
    "coordinates": [
      35.66434259500005,
      34.206621307000034
    ]
  },
  {
    "name": "بزيون",
    "coordinates": [
      35.75457690400003,
      34.09464848600004
    ]
  },
  {
    "name": "قرطبا",
    "coordinates": [
      35.83605863100007,
      34.092948711000076
    ]
  },
  {
    "name": "دير مار سركيس",
    "coordinates": [
      35.85918768000005,
      34.09575874300003
    ]
  },
  {
    "name": "عين الغويبه",
    "coordinates": [
      35.85913324300003,
      34.08378860500005
    ]
  },
  {
    "name": "مزرعه السياد",
    "coordinates": [
      35.85782681500007,
      34.11537223100004
    ]
  },
  {
    "name": "هدينه",
    "coordinates": [
      35.869880058000035,
      34.09182681600004
    ]
  },
  {
    "name": "جنه",
    "coordinates": [
      35.83157209400008,
      34.08053973900007
    ]
  },
  {
    "name": "لاسا",
    "coordinates": [
      35.848227121000036,
      34.06832194200007
    ]
  },
  {
    "name": "سرعيتا",
    "coordinates": [
      35.86881043500006,
      34.08518439200003
    ]
  },
  {
    "name": "غابات",
    "coordinates": [
      35.87132904900005,
      34.07946064600003
    ]
  },
  {
    "name": "مغيره",
    "coordinates": [
      35.879022908000024,
      34.10667807300007
    ]
  },
  {
    "name": "تدمر",
    "coordinates": [
      35.86818520500003,
      34.10340959000007
    ]
  },
  {
    "name": "يانوح",
    "coordinates": [
      35.88400028700005,
      34.09723836100005
    ]
  },
  {
    "name": "قرقريا",
    "coordinates": [
      35.80881259300003,
      34.07681804300006
    ]
  },
  {
    "name": "بلحص",
    "coordinates": [
      35.809237170000074,
      34.09412561000005
    ]
  },
  {
    "name": "المجدل",
    "coordinates": [
      35.90757056100006,
      34.085657715000025
    ]
  },
  {
    "name": "اللقلوق",
    "coordinates": [
      35.86480257900007,
      34.13218570400005
    ]
  },
  {
    "name": "افقا",
    "coordinates": [
      35.890634497000065,
      34.06548260400007
    ]
  },
  {
    "name": "قهمز",
    "coordinates": [
      35.808959379000044,
      34.061308516000054
    ]
  },
  {
    "name": "عاقوره",
    "coordinates": [
      35.94787116200007,
      34.117835770000056
    ]
  },
  {
    "name": "عرب اللهيب",
    "coordinates": [
      35.898259504000066,
      34.151615063000065
    ]
  },
  {
    "name": "سقي رشميا",
    "coordinates": [
      35.803108964000046,
      34.15195880500005
    ]
  },
  {
    "name": "جاج",
    "coordinates": [
      35.823865530000035,
      34.16062633400003
    ]
  },
  {
    "name": "ترتج",
    "coordinates": [
      35.839432688000045,
      34.175516723000044
    ]
  },
  {
    "name": "حمي مار مارون عنايا",
    "coordinates": [
      35.85038470500007,
      34.13362787900007
    ]
  },
  {
    "name": "حمي الرهبان",
    "coordinates": [
      35.86268490800006,
      34.14573478600005
    ]
  },
  {
    "name": "عرستا",
    "coordinates": [
      35.88391829300008,
      34.07712347700004
    ]
  },
  {
    "name": "طرابلس الزيتون",
    "coordinates": [
      35.841155625000056,
      34.41569247000007
    ]
  },
  {
    "name": "الحدادين",
    "coordinates": [
      35.84043385200005,
      34.431281356000056
    ]
  },
  {
    "name": "التل",
    "coordinates": [
      35.838982944000065,
      34.43844723800004
    ]
  },
  {
    "name": "النوري",
    "coordinates": [
      35.84125667300003,
      34.43530097800004
    ]
  },
  {
    "name": "المهاتره",
    "coordinates": [
      35.84419473300005,
      34.43392251300003
    ]
  },
  {
    "name": "الرمانه",
    "coordinates": [
      35.84327543000006,
      34.436005711000064
    ]
  },
  {
    "name": "السويقه",
    "coordinates": [
      35.84694762000004,
      34.433854875000065
    ]
  },
  {
    "name": "الحديد",
    "coordinates": [
      35.84560884100006,
      34.435807348000026
    ]
  },
  {
    "name": "القبه",
    "coordinates": [
      35.84984712800008,
      34.43672686000008
    ]
  },
  {
    "name": "الزاهريه",
    "coordinates": [
      35.843993115000046,
      34.43852291600007
    ]
  },
  {
    "name": "التبانه",
    "coordinates": [
      35.850347068000076,
      34.441983263000054
    ]
  },
  {
    "name": "بساتين طرابلس",
    "coordinates": [
      35.82820088500006,
      34.43129431400007
    ]
  },
  {
    "name": "مينا طرابلس 1",
    "coordinates": [
      35.81758436600006,
      34.44952609300003
    ]
  },
  {
    "name": "مينا طرابلس 2",
    "coordinates": [
      35.81283327500006,
      34.44897521100006
    ]
  },
  {
    "name": "المينا",
    "coordinates": [
      35.81016922600003,
      34.45276285500006
    ]
  },
  {
    "name": "بساتين المينا",
    "coordinates": [
      35.820960555000056,
      34.442484560000025
    ]
  },
  {
    "name": "القلمون",
    "coordinates": [
      35.78779474000004,
      34.38612573300003
    ]
  },
  {
    "name": "اميون",
    "coordinates": [
      35.80507577100008,
      34.298461098000075
    ]
  },
  {
    "name": "كفر عقا",
    "coordinates": [
      35.83367197900003,
      34.312257799000065
    ]
  },
  {
    "name": "كفرصارون",
    "coordinates": [
      35.82927714400006,
      34.29702064000003
    ]
  },
  {
    "name": "بشمزين",
    "coordinates": [
      35.79741202200006,
      34.320071932000076
    ]
  },
  {
    "name": "بطرام",
    "coordinates": [
      35.81513256300008,
      34.33436740500008
    ]
  },
  {
    "name": "بزيزا",
    "coordinates": [
      35.81863301300007,
      34.27614746900008
    ]
  },
  {
    "name": "كفرحزير",
    "coordinates": [
      35.76116419900006,
      34.30695498800003
    ]
  },
  {
    "name": "بصرما",
    "coordinates": [
      35.84486609800007,
      34.334603291000064
    ]
  },
  {
    "name": "عفصديق",
    "coordinates": [
      35.78727718300007,
      34.33076743600003
    ]
  },
  {
    "name": "دار شمزين",
    "coordinates": [
      35.77850616000006,
      34.28614734200005
    ]
  },
  {
    "name": "دار بعشتار",
    "coordinates": [
      35.795504504000064,
      34.272166576000075
    ]
  },
  {
    "name": "بحبوش",
    "coordinates": [
      35.83483501000006,
      34.27722429800008
    ]
  },
  {
    "name": "عين عكرين",
    "coordinates": [
      35.84578081400008,
      34.283310880000045
    ]
  },
  {
    "name": "كوسبا",
    "coordinates": [
      35.852339501000074,
      34.309179103000076
    ]
  },
  {
    "name": "رشدبين",
    "coordinates": [
      35.85844564100006,
      34.28916220200006
    ]
  },
  {
    "name": "بنهران",
    "coordinates": [
      35.856184032000044,
      34.274267112000075
    ]
  },
  {
    "name": "عبا الكوره",
    "coordinates": [
      35.831005497000035,
      34.343712863000064
    ]
  },
  {
    "name": "بدبا",
    "coordinates": [
      35.81879528500008,
      34.34864810000005
    ]
  },
  {
    "name": "فيع",
    "coordinates": [
      35.783655113000066,
      34.34487959000006
    ]
  },
  {
    "name": "مجدل الكوره",
    "coordinates": [
      35.794545249000066,
      34.25573609000003
    ]
  },
  {
    "name": "كفتون",
    "coordinates": [
      35.77022189200005,
      34.265540102000045
    ]
  },
  {
    "name": "بتعبوره",
    "coordinates": [
      35.76127246000004,
      34.27624983700008
    ]
  },
  {
    "name": "كفرحاتا",
    "coordinates": [
      35.74344062900008,
      34.28510086800003
    ]
  },
  {
    "name": "اجدعبرين",
    "coordinates": [
      35.73977339100003,
      34.271023902000024
    ]
  },
  {
    "name": "بترومين",
    "coordinates": [
      35.80958200300006,
      34.36588547300005
    ]
  },
  {
    "name": "بدبهون",
    "coordinates": [
      35.76232591400003,
      34.33325337700006
    ]
  },
  {
    "name": "برغون",
    "coordinates": [
      35.76050500200006,
      34.344273017000035
    ]
  },
  {
    "name": "بدنايل الكوره",
    "coordinates": [
      35.73317923700006,
      34.29494370500004
    ]
  },
  {
    "name": "كفرقاهل",
    "coordinates": [
      35.849867577000055,
      34.354768198000045
    ]
  },
  {
    "name": "بتوراتيج",
    "coordinates": [
      35.84043814200004,
      34.36209058400004
    ]
  },
  {
    "name": "قلحات",
    "coordinates": [
      35.776921274000074,
      34.35944277400006
    ]
  },
  {
    "name": "دير البلمند",
    "coordinates": [
      35.782818005000024,
      34.36650761800007
    ]
  },
  {
    "name": "زكرون",
    "coordinates": [
      35.75427329400003,
      34.35321027400005
    ]
  },
  {
    "name": "كفريا الكوره",
    "coordinates": [
      35.71832546100006,
      34.297545084000035
    ]
  },
  {
    "name": "دده",
    "coordinates": [
      35.80486409500003,
      34.38433996800006
    ]
  },
  {
    "name": "انفه",
    "coordinates": [
      35.73904704900008,
      34.35321046900003
    ]
  },
  {
    "name": "حريشه",
    "coordinates": [
      35.75477209200005,
      34.37301500600006
    ]
  },
  {
    "name": "راس مسقا الجنوبيه",
    "coordinates": [
      35.82653924600004,
      34.40681134300007
    ]
  },
  {
    "name": "برصا",
    "coordinates": [
      35.82968791800005,
      34.386570531000075
    ]
  },
  {
    "name": "بكفتين",
    "coordinates": [
      35.86163290800005,
      34.38553920500004
    ]
  },
  {
    "name": "نخله",
    "coordinates": [
      35.82998351700007,
      34.36927126900002
    ]
  },
  {
    "name": "البقيعه",
    "coordinates": [
      35.85648595200007,
      34.371375647000036
    ]
  },
  {
    "name": "زغرتا المتاوله",
    "coordinates": [
      35.84083418100005,
      34.25242707600006
    ]
  },
  {
    "name": "زغرتا",
    "coordinates": [
      35.891607832000034,
      34.399087200000054
    ]
  },
  {
    "name": "عردات",
    "coordinates": [
      35.88721837000003,
      34.410704201000044
    ]
  },
  {
    "name": "كفردلاقوس",
    "coordinates": [
      35.90783832900007,
      34.395550007000054
    ]
  },
  {
    "name": "رشعين",
    "coordinates": [
      35.92764889500006,
      34.40387834300003
    ]
  },
  {
    "name": "قره باش",
    "coordinates": [
      35.89265234100003,
      34.37815650700003
    ]
  },
  {
    "name": "كفر حاتا",
    "coordinates": [
      35.90290959400005,
      34.38135292900006
    ]
  },
  {
    "name": "ارده",
    "coordinates": [
      35.917185207000045,
      34.41712578700003
    ]
  },
  {
    "name": "اصنون",
    "coordinates": [
      35.890056953000055,
      34.38636277200004
    ]
  },
  {
    "name": "مزرعه اجبع",
    "coordinates": [
      35.88151031700005,
      34.385523385000056
    ]
  },
  {
    "name": "مجدليا زغرتا",
    "coordinates": [
      35.87680909900007,
      34.428788379000025
    ]
  },
  {
    "name": "حريق زغرتا",
    "coordinates": [
      35.91703574600007,
      34.37990715700005
    ]
  },
  {
    "name": "علما",
    "coordinates": [
      35.90028270700003,
      34.42819050500003
    ]
  },
  {
    "name": "مزرعه جنيد",
    "coordinates": [
      35.892350101000034,
      34.37526702400004
    ]
  },
  {
    "name": "الجديده زغرتا",
    "coordinates": [
      35.89158264400004,
      34.363719787000036
    ]
  },
  {
    "name": "خالديه",
    "coordinates": [
      35.911381316000075,
      34.37134939400005
    ]
  },
  {
    "name": "ايعال",
    "coordinates": [
      35.91238296600005,
      34.356086798000035
    ]
  },
  {
    "name": "كفر حورا",
    "coordinates": [
      35.87185316500006,
      34.381852620000075
    ]
  },
  {
    "name": "كفر زينا",
    "coordinates": [
      35.88167028200007,
      34.37021271400005
    ]
  },
  {
    "name": "كفر شخنا",
    "coordinates": [
      35.864318541000046,
      34.36038422300004
    ]
  },
  {
    "name": "بسبعل",
    "coordinates": [
      35.87703253400008,
      34.353392779000046
    ]
  },
  {
    "name": "صخره",
    "coordinates": [
      35.92264322200003,
      34.36353887800004
    ]
  },
  {
    "name": "حواكير",
    "coordinates": [
      35.93178732600006,
      34.36551345400005
    ]
  },
  {
    "name": "كفر ياشيت",
    "coordinates": [
      35.894162324000035,
      34.35318615400007
    ]
  },
  {
    "name": "كفرصغاب",
    "coordinates": [
      35.905787608000026,
      34.346581669000045
    ]
  },
  {
    "name": "بشنين",
    "coordinates": [
      35.86188320500003,
      34.34627090300006
    ]
  },
  {
    "name": "بنشعي",
    "coordinates": [
      35.895017729000074,
      34.33320031300008
    ]
  },
  {
    "name": "عرجس",
    "coordinates": [
      35.880696159000024,
      34.33816948300006
    ]
  },
  {
    "name": "داريا",
    "coordinates": [
      35.86787713900003,
      34.33301574200004
    ]
  },
  {
    "name": "كفر فو",
    "coordinates": [
      35.88135655900004,
      34.32120684300003
    ]
  },
  {
    "name": "راس كيفا",
    "coordinates": [
      35.86944982000006,
      34.31511968600006
    ]
  },
  {
    "name": "كرم سده",
    "coordinates": [
      35.88668387600006,
      34.30313550600005
    ]
  },
  {
    "name": "تله زغرتا",
    "coordinates": [
      35.87767021800005,
      34.39337325200006
    ]
  },
  {
    "name": "اهدن",
    "coordinates": [
      35.98810982400005,
      34.29134864100007
    ]
  },
  {
    "name": "بسلوقيت",
    "coordinates": [
      35.96863810900004,
      34.308107576000054
    ]
  },
  {
    "name": "عينطورين",
    "coordinates": [
      35.941720917000055,
      34.29104091000005
    ]
  },
  {
    "name": "كفر صغاب",
    "coordinates": [
      35.963080029000025,
      34.27863473900004
    ]
  },
  {
    "name": "عربه قزحيا",
    "coordinates": [
      35.935340429000064,
      34.282928421000065
    ]
  },
  {
    "name": "تولا زغرتا",
    "coordinates": [
      35.96527621800004,
      34.319672199000024
    ]
  },
  {
    "name": "مزرعه التفاح",
    "coordinates": [
      35.94822999000007,
      34.31971435600008
    ]
  },
  {
    "name": "بحيره تولا",
    "coordinates": [
      35.970412622000026,
      34.32434410600007
    ]
  },
  {
    "name": "ايطو",
    "coordinates": [
      35.92199289800004,
      34.30776474800007
    ]
  },
  {
    "name": "مزياره",
    "coordinates": [
      35.93057490000007,
      34.337876203000064
    ]
  },
  {
    "name": "سرعيل",
    "coordinates": [
      35.90824989300006,
      34.291440084000044
    ]
  },
  {
    "name": "سبعل زغرتا",
    "coordinates": [
      35.906034989000034,
      34.31832863300008
    ]
  },
  {
    "name": "دنها",
    "coordinates": [
      35.938508254000055,
      34.396254886000065
    ]
  },
  {
    "name": "عشاش",
    "coordinates": [
      35.93985760100003,
      34.41972287800007
    ]
  },
  {
    "name": "مرياطا",
    "coordinates": [
      35.930090317000065,
      34.419336876000045
    ]
  },
  {
    "name": "حيلان زغرتا",
    "coordinates": [
      35.960460262000026,
      34.431952016000025
    ]
  },
  {
    "name": "بوسيط",
    "coordinates": [
      35.92364861600004,
      34.441097900000045
    ]
  },
  {
    "name": "كفريا زغرتا",
    "coordinates": [
      35.96547831400005,
      34.445203900000024
    ]
  },
  {
    "name": "حريقص",
    "coordinates": [
      35.92994328800006,
      34.45334875900005
    ]
  },
  {
    "name": "اجبع",
    "coordinates": [
      35.94448946400007,
      34.30977911300005
    ]
  },
  {
    "name": "بترون",
    "coordinates": [
      35.667307067000024,
      34.256835573000046
    ]
  },
  {
    "name": "راشانا",
    "coordinates": [
      35.670704357000034,
      34.21546871000004
    ]
  },
  {
    "name": "تحوم",
    "coordinates": [
      35.65812452600005,
      34.21334864000005
    ]
  },
  {
    "name": "كفر عبيدا",
    "coordinates": [
      35.66391762400008,
      34.230452240000034
    ]
  },
  {
    "name": "كوبا",
    "coordinates": [
      35.667996447000064,
      34.271340519000034
    ]
  },
  {
    "name": "سلعاتا",
    "coordinates": [
      35.66296396900003,
      34.281044748000056
    ]
  },
  {
    "name": "هري",
    "coordinates": [
      35.71679340500003,
      34.308604342000024
    ]
  },
  {
    "name": "شكا",
    "coordinates": [
      35.739455914000075,
      34.32429188400005
    ]
  },
  {
    "name": "ضهر ابي ياغي",
    "coordinates": [
      35.72869346700003,
      34.18983613700004
    ]
  },
  {
    "name": "تولا",
    "coordinates": [
      35.73097821500005,
      34.19978369700004
    ]
  },
  {
    "name": "مسرح",
    "coordinates": [
      35.74234087800005,
      34.18773390500007
    ]
  },
  {
    "name": "دريا",
    "coordinates": [
      35.73167949100008,
      34.21454524400008
    ]
  },
  {
    "name": "عبدللي",
    "coordinates": [
      35.718698596000024,
      34.20856087800007
    ]
  },
  {
    "name": "دوق",
    "coordinates": [
      35.74755268500007,
      34.197138057000075
    ]
  },
  {
    "name": "جربتا",
    "coordinates": [
      35.71373534800006,
      34.19849398300005
    ]
  },
  {
    "name": "شبطين",
    "coordinates": [
      35.749950668000054,
      34.21085525700005
    ]
  },
  {
    "name": "دير كفيفان",
    "coordinates": [
      35.72587929400004,
      34.22271133900006
    ]
  },
  {
    "name": "صغار",
    "coordinates": [
      35.69221476100006,
      34.20058703700005
    ]
  },
  {
    "name": "مار ماما",
    "coordinates": [
      35.75592981600005,
      34.18886105000007
    ]
  },
  {
    "name": "دير مار يوسف جربتا",
    "coordinates": [
      35.69922794400003,
      34.209036225000034
    ]
  },
  {
    "name": "مراح الزيات",
    "coordinates": [
      35.704067129000066,
      34.21771695100006
    ]
  },
  {
    "name": "غوما",
    "coordinates": [
      35.68994226800004,
      34.21324245500006
    ]
  },
  {
    "name": "كفيفان",
    "coordinates": [
      35.720203465000054,
      34.23301395100003
    ]
  },
  {
    "name": "جران",
    "coordinates": [
      35.70698215700003,
      34.225510763000045
    ]
  },
  {
    "name": "محمرش",
    "coordinates": [
      35.766921299000046,
      34.19848461400005
    ]
  },
  {
    "name": "علالي",
    "coordinates": [
      35.77587140900005,
      34.205739282000025
    ]
  },
  {
    "name": "سمار جبيل",
    "coordinates": [
      35.68139712800007,
      34.220369299000026
    ]
  },
  {
    "name": "كفرحتنا",
    "coordinates": [
      35.74622043800008,
      34.23035075300004
    ]
  },
  {
    "name": "زان",
    "coordinates": [
      35.75650073500003,
      34.22401892000005
    ]
  },
  {
    "name": "فتاحات",
    "coordinates": [
      35.761803530000066,
      34.23107209900007
    ]
  },
  {
    "name": "كور",
    "coordinates": [
      35.73407250300005,
      34.23851086700006
    ]
  },
  {
    "name": "راشا",
    "coordinates": [
      35.785442825000075,
      34.20008028400008
    ]
  },
  {
    "name": "بسبينا",
    "coordinates": [
      35.70680895600003,
      34.236657861000026
    ]
  },
  {
    "name": "عرطز",
    "coordinates": [
      35.75103947300005,
      34.23448270100005
    ]
  },
  {
    "name": "حربونا",
    "coordinates": [
      35.74493321400007,
      34.24111301200003
    ]
  },
  {
    "name": "مراح الحاج",
    "coordinates": [
      35.77783681300008,
      34.21026424100006
    ]
  },
  {
    "name": "مراح شديد",
    "coordinates": [
      35.68558323800005,
      34.22672159500007
    ]
  },
  {
    "name": "كفر شليمان",
    "coordinates": [
      35.77313575900007,
      34.23078832600004
    ]
  },
  {
    "name": "اده البترون",
    "coordinates": [
      35.68497155500006,
      34.235394349000046
    ]
  },
  {
    "name": "صورات",
    "coordinates": [
      35.760703584000055,
      34.237704388000054
    ]
  },
  {
    "name": "اسيا",
    "coordinates": [
      35.79015085200007,
      34.21834247500004
    ]
  },
  {
    "name": "بجدرفل",
    "coordinates": [
      35.71714120200005,
      34.247335941000074
    ]
  },
  {
    "name": "اجدبرا",
    "coordinates": [
      35.689683810000076,
      34.24525433300005
    ]
  },
  {
    "name": "حلتا",
    "coordinates": [
      35.77840704600004,
      34.23875438300007
    ]
  },
  {
    "name": "عبرين",
    "coordinates": [
      35.69948054200006,
      34.258781052000074
    ]
  },
  {
    "name": "كفرحي",
    "coordinates": [
      35.74300382100006,
      34.25475989300003
    ]
  },
  {
    "name": "نحلا البترون",
    "coordinates": [
      35.806259855000064,
      34.21640225700003
    ]
  },
  {
    "name": "جبلا",
    "coordinates": [
      35.78047789400006,
      34.246880533000024
    ]
  },
  {
    "name": "راشكيدا",
    "coordinates": [
      35.71806147700005,
      34.26753604500004
    ]
  },
  {
    "name": "بقسميا",
    "coordinates": [
      35.763763277000066,
      34.255090377000045
    ]
  },
  {
    "name": "داعل",
    "coordinates": [
      35.79744829100008,
      34.241357565000044
    ]
  },
  {
    "name": "كفر خلص",
    "coordinates": [
      35.68306942700008,
      34.26288319500003
    ]
  },
  {
    "name": "قرنعون",
    "coordinates": [
      35.694110497000054,
      34.272199337000075
    ]
  },
  {
    "name": "راس نحاش",
    "coordinates": [
      35.713304761000074,
      34.28275357200005
    ]
  },
  {
    "name": "وجه الحجر",
    "coordinates": [
      35.675710441000035,
      34.28097973800004
    ]
  },
  {
    "name": "حامات",
    "coordinates": [
      35.68976619100005,
      34.295070603000056
    ]
  },
  {
    "name": "دوما",
    "coordinates": [
      35.853745168000046,
      34.197441679000065
    ]
  },
  {
    "name": "بشعله",
    "coordinates": [
      35.82225710300003,
      34.20181783000004
    ]
  },
  {
    "name": "بيت شلالا",
    "coordinates": [
      35.83256113700003,
      34.22732176100004
    ]
  },
  {
    "name": "دير مار يوحنا دوما",
    "coordinates": [
      35.833771166000076,
      34.218750079000074
    ]
  },
  {
    "name": "بشتودار",
    "coordinates": [
      35.81588394200003,
      34.22836024600008
    ]
  },
  {
    "name": "كفر حلدا",
    "coordinates": [
      35.84098226700007,
      34.229345684000066
    ]
  },
  {
    "name": "كفور العربي",
    "coordinates": [
      35.876245091000044,
      34.220534110000074
    ]
  },
  {
    "name": "الرام البترون",
    "coordinates": [
      35.79996388500007,
      34.18532203900003
    ]
  },
  {
    "name": "حدتون",
    "coordinates": [
      35.80093373400007,
      34.194953475000034
    ]
  },
  {
    "name": "تنورين التحتا",
    "coordinates": [
      35.898589180000045,
      34.20851961200003
    ]
  },
  {
    "name": "حردين",
    "coordinates": [
      35.858168023000076,
      34.23833796900004
    ]
  },
  {
    "name": "شاتين",
    "coordinates": [
      35.87235699200005,
      34.17253319200006
    ]
  },
  {
    "name": "بيت كساب",
    "coordinates": [
      35.847746219000044,
      34.24687004000003
    ]
  },
  {
    "name": "ديربلا",
    "coordinates": [
      35.82117701800007,
      34.251803547000065
    ]
  },
  {
    "name": "نيحا البترون",
    "coordinates": [
      35.894388423000066,
      34.23025150600006
    ]
  },
  {
    "name": "وطي حوب",
    "coordinates": [
      35.90203573000008,
      34.19510052000004
    ]
  },
  {
    "name": "تنورين الفوقا",
    "coordinates": [
      35.956322972000066,
      34.18851877700007
    ]
  },
  {
    "name": "حلبا",
    "coordinates": [
      36.07622980600007,
      34.55703369400004
    ]
  },
  {
    "name": "الشيخ محمد",
    "coordinates": [
      36.08308985800005,
      34.553227743000036
    ]
  },
  {
    "name": "النفيسه",
    "coordinates": [
      36.08916976800003,
      34.54580242000003
    ]
  },
  {
    "name": "عدبل",
    "coordinates": [
      36.09603008100004,
      34.532324481000046
    ]
  },
  {
    "name": "كروم العرب",
    "coordinates": [
      36.09080614000004,
      34.555645543000026
    ]
  },
  {
    "name": "الشيخ طابا السهل",
    "coordinates": [
      36.06216184200008,
      34.55090590900005
    ]
  },
  {
    "name": "الشيخ طابا",
    "coordinates": [
      36.07938142900008,
      34.53349770800003
    ]
  },
  {
    "name": "جديده الجومه",
    "coordinates": [
      36.06454573700006,
      34.53911615000004
    ]
  },
  {
    "name": "الدوره",
    "coordinates": [
      36.21913434500004,
      34.54650758200006
    ]
  },
  {
    "name": "الزواريب",
    "coordinates": [
      36.068507096000076,
      34.52901418500005
    ]
  },
  {
    "name": "المجدل عكار",
    "coordinates": [
      36.21082860900003,
      34.56965764500006
    ]
  },
  {
    "name": "منياره",
    "coordinates": [
      36.06063532300004,
      34.535948966000035
    ]
  },
  {
    "name": "مشيلحه الحاكور",
    "coordinates": [
      36.05212525200005,
      34.525522602000024
    ]
  },
  {
    "name": "كرم عصفور",
    "coordinates": [
      36.064366961000076,
      34.52479665300007
    ]
  },
  {
    "name": "بيت غطاس",
    "coordinates": [
      36.06119566700005,
      34.524324609000075
    ]
  },
  {
    "name": "القنطره",
    "coordinates": [
      36.07844982100005,
      34.52263471800006
    ]
  },
  {
    "name": "مشحه",
    "coordinates": [
      36.10910966200004,
      34.54420875000005
    ]
  },
  {
    "name": "حيزوق",
    "coordinates": [
      36.13442683900007,
      34.55115045700006
    ]
  },
  {
    "name": "عرقا",
    "coordinates": [
      36.04268906600004,
      34.54215357800007
    ]
  },
  {
    "name": "السويسه",
    "coordinates": [
      36.11899498900004,
      34.556323450000036
    ]
  },
  {
    "name": "ايلات",
    "coordinates": [
      36.10266332600003,
      34.520257195000056
    ]
  },
  {
    "name": "بقرزلا",
    "coordinates": [
      36.06683677400008,
      34.50821263100005
    ]
  },
  {
    "name": "دير دلوم",
    "coordinates": [
      36.019887518000075,
      34.52949471100004
    ]
  },
  {
    "name": "ذوق الحصينه",
    "coordinates": [
      36.041350384000054,
      34.52196294100003
    ]
  },
  {
    "name": "ذوق الحبالصه",
    "coordinates": [
      36.040398598000024,
      34.51613509500004
    ]
  },
  {
    "name": "ضهر ليسينه",
    "coordinates": [
      36.138069846000064,
      34.538350827000045
    ]
  },
  {
    "name": "كفرحره",
    "coordinates": [
      36.13697135500007,
      34.56597785100007
    ]
  },
  {
    "name": "بلدي",
    "coordinates": [
      36.150488600000074,
      34.55558315400003
    ]
  },
  {
    "name": "ذوق حداره",
    "coordinates": [
      36.034493276000035,
      34.51227974300008
    ]
  },
  {
    "name": "ذوق المقشرين",
    "coordinates": [
      36.02912473900005,
      34.519527002000075
    ]
  },
  {
    "name": "جبراييل",
    "coordinates": [
      36.126528077000046,
      34.52427430300003
    ]
  },
  {
    "name": "مار توما",
    "coordinates": [
      36.02092711000006,
      34.51623106100004
    ]
  },
  {
    "name": "الهد",
    "coordinates": [
      36.15693896800008,
      34.56210812300003
    ]
  },
  {
    "name": "تكريت",
    "coordinates": [
      36.15971002300006,
      34.51672561400005
    ]
  },
  {
    "name": "شطاحه",
    "coordinates": [
      36.170827072000066,
      34.53319269900004
    ]
  },
  {
    "name": "بيت ملات",
    "coordinates": [
      36.16244663700007,
      34.53399691900006
    ]
  },
  {
    "name": "بينو",
    "coordinates": [
      36.17730575200005,
      34.54828642800004
    ]
  },
  {
    "name": "العيون",
    "coordinates": [
      36.17301983600004,
      34.52994258600006
    ]
  },
  {
    "name": "قبولا",
    "coordinates": [
      36.18024290000005,
      34.53171625300007
    ]
  },
  {
    "name": "الشقدوف",
    "coordinates": [
      36.19145413800004,
      34.52888802900003
    ]
  },
  {
    "name": "البرج عكار",
    "coordinates": [
      36.186608970000066,
      34.53218788400005
    ]
  },
  {
    "name": "عيات",
    "coordinates": [
      36.199345624000046,
      34.53723827300007
    ]
  },
  {
    "name": "عين يعقوب",
    "coordinates": [
      36.20117575100005,
      34.52184084800007
    ]
  },
  {
    "name": "بزبينا",
    "coordinates": [
      36.19163440400007,
      34.51328956000003
    ]
  },
  {
    "name": "عكار العتيقه",
    "coordinates": [
      36.24095544900007,
      34.52768720900008
    ]
  },
  {
    "name": "تلعباس غربي",
    "coordinates": [
      36.06804944500004,
      34.58234779500003
    ]
  },
  {
    "name": "تل عباس الشرقي",
    "coordinates": [
      36.074653639000076,
      34.59862312800004
    ]
  },
  {
    "name": "الكويخات",
    "coordinates": [
      36.08926205000006,
      34.583300275000056
    ]
  },
  {
    "name": "خريبه الجندي",
    "coordinates": [
      36.09429394600005,
      34.56590999100007
    ]
  },
  {
    "name": "سعدين",
    "coordinates": [
      36.08781392700007,
      34.60212167700007
    ]
  },
  {
    "name": "هوشب",
    "coordinates": [
      36.10177153800004,
      34.58720287600005
    ]
  },
  {
    "name": "الحيصه",
    "coordinates": [
      36.05036996800004,
      34.58917187600008
    ]
  },
  {
    "name": "حكر قته",
    "coordinates": [
      36.107815275000064,
      34.56970026500005
    ]
  },
  {
    "name": "شير حمارين",
    "coordinates": [
      36.103116199000056,
      34.62314388200008
    ]
  },
  {
    "name": "دارين",
    "coordinates": [
      36.102194560000044,
      34.609670409000046
    ]
  },
  {
    "name": "السمونيه",
    "coordinates": [
      36.04935221100004,
      34.57039599600006
    ]
  },
  {
    "name": "المسعوديه",
    "coordinates": [
      36.042403259000025,
      34.61548286300007
    ]
  },
  {
    "name": "تلمعيان",
    "coordinates": [
      36.033979362000025,
      34.59901612500005
    ]
  },
  {
    "name": "قعبرين",
    "coordinates": [
      36.02701207100006,
      34.570151441000064
    ]
  },
  {
    "name": "كفرملكي",
    "coordinates": [
      36.01474576500004,
      34.557604714000036
    ]
  },
  {
    "name": "تلبيره",
    "coordinates": [
      36.05766173500007,
      34.62062121200006
    ]
  },
  {
    "name": "تلحميره",
    "coordinates": [
      36.07617402000005,
      34.62166892300007
    ]
  },
  {
    "name": "حكر جوره سرار",
    "coordinates": [
      36.10892960900003,
      34.629973017000054
    ]
  },
  {
    "name": "برشا",
    "coordinates": [
      36.12089427600006,
      34.626053840000054
    ]
  },
  {
    "name": "القليعات",
    "coordinates": [
      36.00742500400003,
      34.591651521000074
    ]
  },
  {
    "name": "الكنيسه",
    "coordinates": [
      36.02599893300004,
      34.61604135700003
    ]
  },
  {
    "name": "تل سبعل",
    "coordinates": [
      36.03001721500004,
      34.551977269000076
    ]
  },
  {
    "name": "العبوديه",
    "coordinates": [
      36.118705781000074,
      34.635839651000026
    ]
  },
  {
    "name": "المغراق",
    "coordinates": [
      36.01583417300003,
      34.61262634700006
    ]
  },
  {
    "name": "حكر الضاهري",
    "coordinates": [
      36.02287322700005,
      34.631351937000034
    ]
  },
  {
    "name": "مار ليا ملحم",
    "coordinates": [
      36.02416970100006,
      34.54050264600005
    ]
  },
  {
    "name": "الخرنوبه",
    "coordinates": [
      36.13012777300003,
      34.62781139800006
    ]
  },
  {
    "name": "سمقالي",
    "coordinates": [
      36.01468569900004,
      34.543791412000076
    ]
  },
  {
    "name": "المقيطع",
    "coordinates": [
      35.99852707800005,
      34.55882471600006
    ]
  },
  {
    "name": "جنين",
    "coordinates": [
      36.14813704200003,
      34.63012673600008
    ]
  },
  {
    "name": "عماره",
    "coordinates": [
      36.006770017000065,
      34.531112637000035
    ]
  },
  {
    "name": "الشيخ زناد",
    "coordinates": [
      35.997654957000066,
      34.61348184600007
    ]
  },
  {
    "name": "قبه شمرا",
    "coordinates": [
      35.99637016100007,
      34.537290753000036
    ]
  },
  {
    "name": "السماقيه",
    "coordinates": [
      36.00769529400003,
      34.63497212800007
    ]
  },
  {
    "name": "العريضه",
    "coordinates": [
      35.985968343000025,
      34.63533009500003
    ]
  },
  {
    "name": "ببنين",
    "coordinates": [
      35.992700067000044,
      34.50183053000006
    ]
  },
  {
    "name": "المحمره",
    "coordinates": [
      35.97002594200006,
      34.50728731000004
    ]
  },
  {
    "name": "رمول",
    "coordinates": [
      36.00486850800007,
      34.574604805000035
    ]
  },
  {
    "name": "سيسوق",
    "coordinates": [
      36.05894240200007,
      34.486494890000074
    ]
  },
  {
    "name": "برقايل",
    "coordinates": [
      36.02751662800006,
      34.486551484000074
    ]
  },
  {
    "name": "بزال",
    "coordinates": [
      36.04779416900004,
      34.46487638900004
    ]
  },
  {
    "name": "قلود الباقيه",
    "coordinates": [
      36.05876643400006,
      34.49672403000005
    ]
  },
  {
    "name": "دنبو عين الذهب",
    "coordinates": [
      36.08546658200004,
      34.48803733600005
    ]
  },
  {
    "name": "شان",
    "coordinates": [
      36.11135863700008,
      34.485108052000044
    ]
  },
  {
    "name": "بيت يونس",
    "coordinates": [
      36.14609954500003,
      34.47366382800004
    ]
  },
  {
    "name": "الحويش",
    "coordinates": [
      36.11614135900004,
      34.49720299000006
    ]
  },
  {
    "name": "سفينه القيطع",
    "coordinates": [
      36.020817753000074,
      34.45360709900007
    ]
  },
  {
    "name": "قبعيت",
    "coordinates": [
      36.06530705800003,
      34.45451460900006
    ]
  },
  {
    "name": "حبشيت",
    "coordinates": [
      36.09074325800003,
      34.46390545200006
    ]
  },
  {
    "name": "صدقه",
    "coordinates": [
      36.151763380000034,
      34.46590303900007
    ]
  },
  {
    "name": "حرار",
    "coordinates": [
      36.12630405700003,
      34.45815692800005
    ]
  },
  {
    "name": "الخريبه",
    "coordinates": [
      36.123940428000026,
      34.48016039500004
    ]
  },
  {
    "name": "الحميره",
    "coordinates": [
      36.04485034600003,
      34.495889084000055
    ]
  },
  {
    "name": "القريات",
    "coordinates": [
      36.153510840000024,
      34.482378476000065
    ]
  },
  {
    "name": "بيت ايوب",
    "coordinates": [
      36.15884411300004,
      34.47226279300003
    ]
  },
  {
    "name": "القرقف",
    "coordinates": [
      36.011696931000074,
      34.49017865900004
    ]
  },
  {
    "name": "جديده القيطع",
    "coordinates": [
      36.00059742900004,
      34.46013382600006
    ]
  },
  {
    "name": "عيون الغزلان",
    "coordinates": [
      36.01475603400007,
      34.47233467600006
    ]
  },
  {
    "name": "مشمش",
    "coordinates": [
      36.17657780400003,
      34.43986401800004
    ]
  },
  {
    "name": "القرنه",
    "coordinates": [
      36.16627342400005,
      34.482691362000025
    ]
  },
  {
    "name": "النبي خالد",
    "coordinates": [
      36.21563827400007,
      34.46396937700007
    ]
  },
  {
    "name": "مجدلا",
    "coordinates": [
      36.034397402000025,
      34.501404112000046
    ]
  },
  {
    "name": "تاشع",
    "coordinates": [
      36.193560998000066,
      34.497177632000046
    ]
  },
  {
    "name": "رحبه",
    "coordinates": [
      36.13885128900006,
      34.50325326600006
    ]
  },
  {
    "name": "وادي الجاموس",
    "coordinates": [
      36.003957230000026,
      34.51381681500004
    ]
  },
  {
    "name": "بيت الحوش",
    "coordinates": [
      35.99669049400006,
      34.47987248900006
    ]
  },
  {
    "name": "ممنع",
    "coordinates": [
      36.17624764800007,
      34.50285064800005
    ]
  },
  {
    "name": "شيخلار",
    "coordinates": [
      36.27826114800007,
      34.61832562200004
    ]
  },
  {
    "name": "رماح النهريه",
    "coordinates": [
      36.263632123000036,
      34.618160869000064
    ]
  },
  {
    "name": "كفرنون",
    "coordinates": [
      36.24974150400004,
      34.628679946000034
    ]
  },
  {
    "name": "بردي",
    "coordinates": [
      36.25480259700004,
      34.59645723400007
    ]
  },
  {
    "name": "خربه الرمان",
    "coordinates": [
      36.286229723000076,
      34.627053647000025
    ]
  },
  {
    "name": "سنديانه زيدان",
    "coordinates": [
      36.236337185000025,
      34.576147768000055
    ]
  },
  {
    "name": "فريديس",
    "coordinates": [
      36.227029928000036,
      34.616435539000065
    ]
  },
  {
    "name": "منجز",
    "coordinates": [
      36.24498328300007,
      34.61604505300005
    ]
  },
  {
    "name": "القصير",
    "coordinates": [
      36.23921362300007,
      34.60758431100004
    ]
  },
  {
    "name": "البيره عكار",
    "coordinates": [
      36.236013842000034,
      34.59002520100006
    ]
  },
  {
    "name": "خربه داوود",
    "coordinates": [
      36.221320115000026,
      34.58708399400007
    ]
  },
  {
    "name": "الدغله",
    "coordinates": [
      36.21162397300003,
      34.58105804100006
    ]
  },
  {
    "name": "العوينات",
    "coordinates": [
      36.30216327800008,
      34.627860809000026
    ]
  },
  {
    "name": "العماريه",
    "coordinates": [
      36.23141850600007,
      34.604164782000055
    ]
  },
  {
    "name": "كفر الفتوح",
    "coordinates": [
      36.20869253400008,
      34.58978226600004
    ]
  },
  {
    "name": "فسقين و عين اشما",
    "coordinates": [
      36.20021510300006,
      34.57920137800005
    ]
  },
  {
    "name": "عين الزيت",
    "coordinates": [
      36.19928176900004,
      34.59058457000003
    ]
  },
  {
    "name": "الكواشره",
    "coordinates": [
      36.20656345300006,
      34.60983064900006
    ]
  },
  {
    "name": "خالصه",
    "coordinates": [
      36.31414440300006,
      34.63326056500006
    ]
  },
  {
    "name": "خربه شار",
    "coordinates": [
      36.18927344400004,
      34.57978092800005
    ]
  },
  {
    "name": "دبابيه",
    "coordinates": [
      36.20663008300005,
      34.627303452000035
    ]
  },
  {
    "name": "برباره",
    "coordinates": [
      36.186005512000065,
      34.57431771200004
    ]
  },
  {
    "name": "عين تنتا",
    "coordinates": [
      36.18778986700005,
      34.58715402900003
    ]
  },
  {
    "name": "مشتي حمود",
    "coordinates": [
      36.33488259100005,
      34.61482815200003
    ]
  },
  {
    "name": "دوسه بغدادي",
    "coordinates": [
      36.18464466100005,
      34.60399051500008
    ]
  },
  {
    "name": "دير جنين",
    "coordinates": [
      36.17786678500005,
      34.566184333000024
    ]
  },
  {
    "name": "دوير عدويه",
    "coordinates": [
      36.17649114400007,
      34.581580762000044
    ]
  },
  {
    "name": "نورا التحتا",
    "coordinates": [
      36.18581191200008,
      34.62413938800006
    ]
  },
  {
    "name": "سفينه الدريب",
    "coordinates": [
      36.16146835500007,
      34.576826492000066
    ]
  },
  {
    "name": "عمار البيكات",
    "coordinates": [
      36.16538286200006,
      34.611357604000034
    ]
  },
  {
    "name": "مصلا",
    "coordinates": [
      36.170324555000036,
      34.593886370000064
    ]
  },
  {
    "name": "قشلق",
    "coordinates": [
      36.14878778800005,
      34.61954019800004
    ]
  },
  {
    "name": "وادي الحور",
    "coordinates": [
      36.15183354000004,
      34.61011522000007
    ]
  },
  {
    "name": "شربيلا",
    "coordinates": [
      36.147228308000024,
      34.58209040500003
    ]
  },
  {
    "name": "التليل",
    "coordinates": [
      36.139670496000065,
      34.59535550600003
    ]
  },
  {
    "name": "مزيحمه",
    "coordinates": [
      36.14398943300006,
      34.60842705300007
    ]
  },
  {
    "name": "هيتلا",
    "coordinates": [
      36.129543030000036,
      34.60500517500003
    ]
  },
  {
    "name": "كنيسه",
    "coordinates": [
      36.12464245700005,
      34.56464301800003
    ]
  },
  {
    "name": "الريحانيه",
    "coordinates": [
      36.116606002000026,
      34.58175829800007
    ]
  },
  {
    "name": "السنديانه",
    "coordinates": [
      36.12510271700006,
      34.589648933000035
    ]
  },
  {
    "name": "حميص",
    "coordinates": [
      36.12567542100004,
      34.57394857600008
    ]
  },
  {
    "name": "سرار",
    "coordinates": [
      36.13101302700005,
      34.61661051900006
    ]
  },
  {
    "name": "الغزيله",
    "coordinates": [
      36.110468995000076,
      34.59659993100007
    ]
  },
  {
    "name": "عرمه",
    "coordinates": [
      36.16398196200004,
      34.62717158500004
    ]
  },
  {
    "name": "النهريه",
    "coordinates": [
      36.280405951000034,
      34.60028783400003
    ]
  },
  {
    "name": "القبيات",
    "coordinates": [
      36.27364464600004,
      34.55457647600008
    ]
  },
  {
    "name": "عندقت",
    "coordinates": [
      36.30853420300008,
      34.57062736300003
    ]
  },
  {
    "name": "دايره النهر الكبير",
    "coordinates": [
      36.330599267000025,
      34.67535918400006
    ]
  },
  {
    "name": "العماير",
    "coordinates": [
      36.37676931500005,
      34.61874158000006
    ]
  },
  {
    "name": "حنيدر",
    "coordinates": [
      36.42435980000005,
      34.61510532700004
    ]
  },
  {
    "name": "كنيسه هنيدر",
    "coordinates": [
      36.44155606500004,
      34.59834554100007
    ]
  },
  {
    "name": "اكروم",
    "coordinates": [
      36.34422161200007,
      34.55646679000006
    ]
  },
  {
    "name": "قرحه عكار",
    "coordinates": [
      36.449369588000025,
      34.62413711500005
    ]
  },
  {
    "name": "مشاع الجبه",
    "coordinates": [
      36.01837905900004,
      34.20042478500005
    ]
  },
  {
    "name": "بشري",
    "coordinates": [
      36.064902682000024,
      34.24545441500004
    ]
  },
  {
    "name": "قنيور",
    "coordinates": [
      35.92301506700005,
      34.267677813000034
    ]
  },
  {
    "name": "بلا",
    "coordinates": [
      35.89240876900004,
      34.26500168800004
    ]
  },
  {
    "name": "عبدين بشري",
    "coordinates": [
      35.88497150000006,
      34.27657118800005
    ]
  },
  {
    "name": "طورزا",
    "coordinates": [
      35.90221427300003,
      34.27836573900004
    ]
  },
  {
    "name": "قناه",
    "coordinates": [
      35.90608014700007,
      34.24639590400005
    ]
  },
  {
    "name": "حدث الجبه",
    "coordinates": [
      35.93060751300004,
      34.23091579900006
    ]
  },
  {
    "name": "مزرعه بني صعب",
    "coordinates": [
      35.88760100200005,
      34.24389733400005
    ]
  },
  {
    "name": "برحليون",
    "coordinates": [
      35.87375177100006,
      34.26301561500003
    ]
  },
  {
    "name": "وادي قنوبين",
    "coordinates": [
      35.943028136000066,
      34.259160688000065
    ]
  },
  {
    "name": "مزرعه عساف",
    "coordinates": [
      35.87644684800006,
      34.24829255900005
    ]
  },
  {
    "name": "بان",
    "coordinates": [
      35.96623093900007,
      34.27054941700004
    ]
  },
  {
    "name": "بلوزا",
    "coordinates": [
      35.95300703200007,
      34.262970352000025
    ]
  },
  {
    "name": "مغر الاحول",
    "coordinates": [
      35.87781826300005,
      34.28946343900003
    ]
  },
  {
    "name": "بريسات",
    "coordinates": [
      35.94184968400003,
      34.23931755500007
    ]
  },
  {
    "name": "ديمان",
    "coordinates": [
      35.95215428500006,
      34.236839055000075
    ]
  },
  {
    "name": "متريت",
    "coordinates": [
      35.84169170600006,
      34.26391451000006
    ]
  },
  {
    "name": "حصرون",
    "coordinates": [
      35.97255849600003,
      34.228574656000035
    ]
  },
  {
    "name": "حدشيت",
    "coordinates": [
      35.97672533900004,
      34.25662396000007
    ]
  },
  {
    "name": "بزعون",
    "coordinates": [
      35.99337684100004,
      34.228856277000034
    ]
  },
  {
    "name": "بقرقاشا",
    "coordinates": [
      35.99923817900003,
      34.224313309000024
    ]
  },
  {
    "name": "بيت منذر",
    "coordinates": [
      35.914151434000075,
      34.26252799800005
    ]
  },
  {
    "name": "بقاع كفرا",
    "coordinates": [
      36.01948015800008,
      34.22619720200004
    ]
  },
  {
    "name": "بداوي",
    "coordinates": [
      35.87261880300008,
      34.45071076500005
    ]
  },
  {
    "name": "دير عمار",
    "coordinates": [
      35.89911204300006,
      34.45821276300006
    ]
  },
  {
    "name": "برج اليهوديه",
    "coordinates": [
      35.91541855400004,
      34.455403611000065
    ]
  },
  {
    "name": "النبي يوشع",
    "coordinates": [
      35.93225963000003,
      34.461616614000036
    ]
  },
  {
    "name": "المنيه",
    "coordinates": [
      35.93590640200006,
      34.478431355000055
    ]
  },
  {
    "name": "ريحانيه المنيه",
    "coordinates": [
      35.982717163000075,
      34.49221076900005
    ]
  },
  {
    "name": "ذوق بحنين",
    "coordinates": [
      35.95976366900004,
      34.494980389000034
    ]
  },
  {
    "name": "سير الضنيه",
    "coordinates": [
      36.02841180900003,
      34.38361992400007
    ]
  },
  {
    "name": "عاصون",
    "coordinates": [
      36.00808797600007,
      34.38835096500003
    ]
  },
  {
    "name": "مزرعه كتران",
    "coordinates": [
      36.00040449100004,
      34.38279735800006
    ]
  },
  {
    "name": "القطين المنيه",
    "coordinates": [
      36.02739190700004,
      34.39362457100003
    ]
  },
  {
    "name": "بقاع صفرين",
    "coordinates": [
      36.081121049000046,
      34.32221111500007
    ]
  },
  {
    "name": "بقرصونه",
    "coordinates": [
      36.05637218600003,
      34.36948386700004
    ]
  },
  {
    "name": "حازميه المنيه",
    "coordinates": [
      36.040817194000056,
      34.39217369900007
    ]
  },
  {
    "name": "طاران",
    "coordinates": [
      36.03235702400008,
      34.40774829000003
    ]
  },
  {
    "name": "نمرين",
    "coordinates": [
      36.080252028000075,
      34.37479629000006
    ]
  },
  {
    "name": "حقل العزيمه",
    "coordinates": [
      36.01824520800005,
      34.39811211400007
    ]
  },
  {
    "name": "بيت الفقس",
    "coordinates": [
      36.052813780000065,
      34.39305081900005
    ]
  },
  {
    "name": "مراح السفيره",
    "coordinates": [
      36.03544606000003,
      34.399522999000055
    ]
  },
  {
    "name": "عين التينه المنيه",
    "coordinates": [
      36.04591417300003,
      34.392480775000024
    ]
  },
  {
    "name": "خرنوب المنيه",
    "coordinates": [
      36.00704478600005,
      34.40194183800003
    ]
  },
  {
    "name": "سفيره",
    "coordinates": [
      36.058471713000074,
      34.40387054400003
    ]
  },
  {
    "name": "قرصيتا",
    "coordinates": [
      36.07425462900005,
      34.386702229000036
    ]
  },
  {
    "name": "ايزال",
    "coordinates": [
      35.98070543400007,
      34.379816840000046
    ]
  },
  {
    "name": "بطرماز",
    "coordinates": [
      36.03882843400004,
      34.428664119000075
    ]
  },